{
  "type": "FeatureCollection",
  "features": [
    {
      "type": "Feature",
      "id": "1",
      "geometry": {
        "type": "Point",
        "coordinates": [
          10.809746,
          -6.61411
        ]
      },
      "properties": {
        "height": "0.23",
        "label": "Serine",
        "level": 1,
        "pos": "1848.23,183.31",
        "weight": "195933.0",
        "width": "0.50"
      }
    },
    {
      "type": "Feature",
      "id": "100",
      "geometry": {
        "type": "Point",
        "coordinates": [
          10.361024,
          -9.852469
        ]
      },
      "properties": {
        "label": "White mustard",
        "level": 3,
        "pos": "1720.39,-1911.10",
        "weight": "0.0"
      }
    },
    {
      "type": "Feature",
      "id": "104",
      "geometry": {
        "type": "Point",
        "coordinates": [
          10.56794,
          -6.261409
        ]
      },
      "properties": {
        "label": "Sorrel",
        "level": 3,
        "pos": "1779.34,410.47",
        "weight": "0.0"
      }
    },
    {
      "type": "Feature",
      "id": "107",
      "geometry": {
        "type": "Point",
        "coordinates": [
          9.325287,
          -6.790848
        ]
      },
      "properties": {
        "label": "Coconut",
        "level": 3,
        "pos": "1425.31,69.42",
        "weight": "0.0"
      }
    },
    {
      "type": "Feature",
      "id": "109",
      "geometry": {
        "type": "Point",
        "coordinates": [
          12.486308,
          -9.876376
        ]
      },
      "properties": {
        "label": "Muskmelon",
        "level": 3,
        "pos": "2325.88,-1926.63",
        "weight": "0.0"
      }
    },
    {
      "type": "Feature",
      "id": "112",
      "geometry": {
        "type": "Point",
        "coordinates": [
          7.294388,
          -5.449871
        ]
      },
      "properties": {
        "label": "Wheat",
        "level": 4,
        "pos": "846.71,932.58",
        "weight": "0.0"
      }
    },
    {
      "type": "Feature",
      "id": "115",
      "geometry": {
        "type": "Point",
        "coordinates": [
          3.184011,
          -12.206397
        ]
      },
      "properties": {
        "label": "Common bean",
        "level": 4,
        "pos": "-324.33,-3446.07",
        "weight": "0.0"
      }
    },
    {
      "type": "Feature",
      "id": "116",
      "geometry": {
        "type": "Point",
        "coordinates": [
          7.083436,
          -5.632996
        ]
      },
      "properties": {
        "label": "Mandarin orange (Clementine, Tangerine)",
        "level": 4,
        "pos": "786.61,814.83",
        "weight": "0.0"
      }
    },
    {
      "type": "Feature",
      "id": "117",
      "geometry": {
        "type": "Point",
        "coordinates": [
          11.861103,
          -11.849714
        ]
      },
      "properties": {
        "label": "Papaya",
        "level": 4,
        "pos": "2147.76,-3212.67",
        "weight": "0.0"
      }
    },
    {
      "type": "Feature",
      "id": "118",
      "geometry": {
        "type": "Point",
        "coordinates": [
          3.417463,
          -10.852323
        ]
      },
      "properties": {
        "label": "Swamp cabbage",
        "level": 3,
        "pos": "-257.82,-2561.60",
        "weight": "0.0"
      }
    },
    {
      "type": "Feature",
      "id": "121",
      "geometry": {
        "type": "Point",
        "coordinates": [
          12.560299,
          0.889978
        ]
      },
      "properties": {
        "label": "Feijoa",
        "level": 4,
        "pos": "2346.96,4995.35",
        "weight": "0.0"
      }
    },
    {
      "type": "Feature",
      "id": "127",
      "geometry": {
        "type": "Point",
        "coordinates": [
          6.651808,
          -10.030599
        ]
      },
      "properties": {
        "label": "Flaxseed",
        "level": 4,
        "pos": "663.64,-2026.84",
        "weight": "0.0"
      }
    },
    {
      "type": "Feature",
      "id": "129",
      "geometry": {
        "type": "Point",
        "coordinates": [
          10.978472,
          -10.822996
        ]
      },
      "properties": {
        "label": "Nectarine",
        "level": 4,
        "pos": "1896.30,-2542.49",
        "weight": "0.0"
      }
    },
    {
      "type": "Feature",
      "id": "134",
      "geometry": {
        "type": "Point",
        "coordinates": [
          30.150495,
          -2.334534
        ]
      },
      "properties": {
        "label": "Chestnut",
        "level": 4,
        "pos": "7358.38,2931.24",
        "weight": "0.0"
      }
    },
    {
      "type": "Feature",
      "id": "138",
      "geometry": {
        "type": "Point",
        "coordinates": [
          10.21248,
          -6.370649
        ]
      },
      "properties": {
        "label": "Spearmint",
        "level": 3,
        "pos": "1678.07,340.13",
        "weight": "0.0"
      }
    },
    {
      "type": "Feature",
      "id": "143",
      "geometry": {
        "type": "Point",
        "coordinates": [
          4.285281,
          -9.123209
        ]
      },
      "properties": {
        "label": "Savoy cabbage",
        "level": 4,
        "pos": "-10.58,-1437.90",
        "weight": "0.0"
      }
    },
    {
      "type": "Feature",
      "id": "146",
      "geometry": {
        "type": "Point",
        "coordinates": [
          29.543226,
          -4.405316
        ]
      },
      "properties": {
        "label": "Pigeon pea",
        "level": 4,
        "pos": "7185.37,1603.58",
        "weight": "0.0"
      }
    },
    {
      "type": "Feature",
      "id": "153",
      "geometry": {
        "type": "Point",
        "coordinates": [
          12.368476,
          -5.426865
        ]
      },
      "properties": {
        "label": "Hyacinth bean",
        "level": 3,
        "pos": "2292.31,947.37",
        "weight": "0.0"
      }
    },
    {
      "type": "Feature",
      "id": "154",
      "geometry": {
        "type": "Point",
        "coordinates": [
          17.723366,
          -10.499028
        ]
      },
      "properties": {
        "label": "Taro",
        "level": 4,
        "pos": "3817.91,-2331.51",
        "weight": "0.0"
      }
    },
    {
      "type": "Feature",
      "id": "169",
      "geometry": {
        "type": "Point",
        "coordinates": [
          14.802887,
          -9.529872
        ]
      },
      "properties": {
        "label": "Milk substitute",
        "level": 3,
        "pos": "2985.87,-1701.65",
        "weight": "0.0"
      }
    },
    {
      "type": "Feature",
      "id": "170",
      "geometry": {
        "type": "Point",
        "coordinates": [
          3.253475,
          -10.40313
        ]
      },
      "properties": {
        "label": "Multigrain bread",
        "level": 3,
        "pos": "-304.54,-2269.10",
        "weight": "0.0"
      }
    },
    {
      "type": "Feature",
      "id": "173",
      "geometry": {
        "type": "Point",
        "coordinates": [
          10.186471,
          -6.395572
        ]
      },
      "properties": {
        "label": "Soy sauce",
        "level": 3,
        "pos": "1670.66,324.08",
        "weight": "0.0"
      }
    },
    {
      "type": "Feature",
      "id": "176",
      "geometry": {
        "type": "Point",
        "coordinates": [
          11.495499,
          -12.539509
        ]
      },
      "properties": {
        "label": "Honey",
        "level": 3,
        "pos": "2043.60,-3664.33",
        "weight": "0.0"
      }
    },
    {
      "type": "Feature",
      "id": "177",
      "geometry": {
        "type": "Point",
        "coordinates": [
          2.652664,
          -8.375482
        ]
      },
      "properties": {
        "label": "White lupine",
        "level": 4,
        "pos": "-475.71,-953.72",
        "weight": "0.0"
      }
    },
    {
      "type": "Feature",
      "id": "178",
      "geometry": {
        "type": "Point",
        "coordinates": [
          9.155261,
          -6.941713
        ]
      },
      "properties": {
        "label": "Pine nut",
        "level": 3,
        "pos": "1376.87,-27.83",
        "weight": "0.0"
      }
    },
    {
      "type": "Feature",
      "id": "181",
      "geometry": {
        "type": "Point",
        "coordinates": [
          14.919806,
          -10.318916
        ]
      },
      "properties": {
        "label": "Winter squash",
        "level": 3,
        "pos": "3019.18,-2214.31",
        "weight": "0.0"
      }
    },
    {
      "type": "Feature",
      "id": "190",
      "geometry": {
        "type": "Point",
        "coordinates": [
          10.024659,
          -6.556368
        ]
      },
      "properties": {
        "label": "Trail mix",
        "level": 3,
        "pos": "1624.56,220.51",
        "weight": "0.0"
      }
    },
    {
      "type": "Feature",
      "id": "197",
      "geometry": {
        "type": "Point",
        "coordinates": [
          10.364534,
          -6.306372
        ]
      },
      "properties": {
        "label": "Pie filling",
        "level": 3,
        "pos": "1721.39,381.52",
        "weight": "0.0"
      }
    },
    {
      "type": "Feature",
      "id": "205",
      "geometry": {
        "type": "Point",
        "coordinates": [
          20.858448,
          -9.446913
        ]
      },
      "properties": {
        "label": "Tapioca pearl",
        "level": 3,
        "pos": "4711.09,-1647.82",
        "weight": "0.0"
      }
    },
    {
      "type": "Feature",
      "id": "213",
      "geometry": {
        "type": "Point",
        "coordinates": [
          16.84737,
          -10.211952
        ]
      },
      "properties": {
        "label": "Other vegetable product",
        "level": 3,
        "pos": "3568.34,-2144.74",
        "weight": "0.0"
      }
    },
    {
      "type": "Feature",
      "id": "218",
      "geometry": {
        "type": "Point",
        "coordinates": [
          15.275021,
          -4.870088
        ]
      },
      "properties": {
        "label": "Mixed nuts",
        "level": 3,
        "pos": "3120.38,1305.15",
        "weight": "0.0"
      }
    },
    {
      "type": "Feature",
      "id": "225",
      "geometry": {
        "type": "Point",
        "coordinates": [
          15.834904,
          -5.587449
        ]
      },
      "properties": {
        "label": "Chives",
        "level": 3,
        "pos": "3279.89,844.12",
        "weight": "0.0"
      }
    },
    {
      "type": "Feature",
      "id": "227",
      "geometry": {
        "type": "Point",
        "coordinates": [
          4.795884,
          -10.616567
        ]
      },
      "properties": {
        "label": "Kale",
        "level": 3,
        "pos": "134.89,-2408.03",
        "weight": "0.0"
      }
    },
    {
      "type": "Feature",
      "id": "229",
      "geometry": {
        "type": "Point",
        "coordinates": [
          0.116112,
          -12.365497
        ]
      },
      "properties": {
        "label": "Common beet",
        "level": 4,
        "pos": "-1198.37,-3550.28",
        "weight": "0.0"
      }
    },
    {
      "type": "Feature",
      "id": "231",
      "geometry": {
        "type": "Point",
        "coordinates": [
          7.612642,
          -5.19975
        ]
      },
      "properties": {
        "label": "Banana",
        "level": 4,
        "pos": "937.38,1093.35",
        "weight": "0.0"
      }
    },
    {
      "type": "Feature",
      "id": "232",
      "geometry": {
        "type": "Point",
        "coordinates": [
          17.622278,
          -6.675679
        ]
      },
      "properties": {
        "label": "Gelatin",
        "level": 3,
        "pos": "3789.11,143.64",
        "weight": "0.0"
      }
    },
    {
      "type": "Feature",
      "id": "233",
      "geometry": {
        "type": "Point",
        "coordinates": [
          10.932421,
          -10.622787
        ]
      },
      "properties": {
        "label": "Tallow",
        "level": 3,
        "pos": "1883.18,-2412.08",
        "weight": "0.0"
      }
    },
    {
      "type": "Feature",
      "id": "236",
      "geometry": {
        "type": "Point",
        "coordinates": [
          10.017393,
          -6.474245
        ]
      },
      "properties": {
        "label": "Gelatin dessert",
        "level": 3,
        "pos": "1622.49,273.41",
        "weight": "0.0"
      }
    },
    {
      "type": "Feature",
      "id": "237",
      "geometry": {
        "type": "Point",
        "coordinates": [
          5.52646,
          -10.422539
        ]
      },
      "properties": {
        "label": "Sunburst squash (pattypan squash)",
        "level": 3,
        "pos": "343.03,-2281.73",
        "weight": "0.0"
      }
    },
    {
      "type": "Feature",
      "id": "241",
      "geometry": {
        "type": "Point",
        "coordinates": [
          16.560601,
          -4.95227
        ]
      },
      "properties": {
        "label": "Bulgur",
        "level": 3,
        "pos": "3486.64,1252.36",
        "weight": "0.0"
      }
    },
    {
      "type": "Feature",
      "id": "243",
      "geometry": {
        "type": "Point",
        "coordinates": [
          29.308581,
          -11.415168
        ]
      },
      "properties": {
        "label": "Nanking cherry",
        "level": 3,
        "pos": "7118.52,-2928.73",
        "weight": "0.0"
      }
    },
    {
      "type": "Feature",
      "id": "246",
      "geometry": {
        "type": "Point",
        "coordinates": [
          10.075519,
          -6.391472
        ]
      },
      "properties": {
        "label": "Crisp bread",
        "level": 3,
        "pos": "1639.05,326.72",
        "weight": "0.0"
      }
    },
    {
      "type": "Feature",
      "id": "255",
      "geometry": {
        "type": "Point",
        "coordinates": [
          11.676897,
          -9.449318
        ]
      },
      "properties": {
        "label": "Semolina",
        "level": 3,
        "pos": "2095.28,-1649.38",
        "weight": "0.0"
      }
    },
    {
      "type": "Feature",
      "id": "259",
      "geometry": {
        "type": "Point",
        "coordinates": [
          10.061479,
          -6.49255
        ]
      },
      "properties": {
        "label": "Triticale",
        "level": 3,
        "pos": "1635.05,261.62",
        "weight": "0.0"
      }
    },
    {
      "type": "Feature",
      "id": "264",
      "geometry": {
        "type": "Point",
        "coordinates": [
          17.053408,
          -2.916548
        ]
      },
      "properties": {
        "label": "Kiwi",
        "level": 3,
        "pos": "3627.04,2558.36",
        "weight": "0.0"
      }
    },
    {
      "type": "Feature",
      "id": "273",
      "geometry": {
        "type": "Point",
        "coordinates": [
          14.488249,
          -4.393226
        ]
      },
      "properties": {
        "label": "Spelt",
        "level": 3,
        "pos": "2896.23,1611.34",
        "weight": "0.0"
      }
    },
    {
      "type": "Feature",
      "id": "279",
      "geometry": {
        "type": "Point",
        "coordinates": [
          16.152947,
          -5.74188
        ]
      },
      "properties": {
        "label": "Purple laver",
        "level": 3,
        "pos": "3370.50,744.80",
        "weight": "0.0"
      }
    },
    {
      "type": "Feature",
      "id": "288",
      "geometry": {
        "type": "Point",
        "coordinates": [
          15.375583,
          -5.082504
        ]
      },
      "properties": {
        "label": "Red beetroot",
        "level": 3,
        "pos": "3149.03,1168.69",
        "weight": "0.0"
      }
    },
    {
      "type": "Feature",
      "id": "290",
      "geometry": {
        "type": "Point",
        "coordinates": [
          10.06871,
          -6.504566
        ]
      },
      "properties": {
        "label": "Raisin bread",
        "level": 3,
        "pos": "1637.11,253.88",
        "weight": "0.0"
      }
    },
    {
      "type": "Feature",
      "id": "297",
      "geometry": {
        "type": "Point",
        "coordinates": [
          9.528763,
          -6.919423
        ]
      },
      "properties": {
        "label": "Relish",
        "level": 3,
        "pos": "1483.28,-13.46",
        "weight": "0.0"
      }
    },
    {
      "type": "Feature",
      "id": "303",
      "geometry": {
        "type": "Point",
        "coordinates": [
          11.055237,
          -5.906169
        ]
      },
      "properties": {
        "label": "Swede",
        "level": 3,
        "pos": "1918.17,639.11",
        "weight": "0.0"
      }
    },
    {
      "type": "Feature",
      "id": "304",
      "geometry": {
        "type": "Point",
        "coordinates": [
          9.815497,
          -6.509953
        ]
      },
      "properties": {
        "label": "Fruit preserve",
        "level": 3,
        "pos": "1564.97,250.41",
        "weight": "0.0"
      }
    },
    {
      "type": "Feature",
      "id": "319",
      "geometry": {
        "type": "Point",
        "coordinates": [
          9.360843,
          -7.016778
        ]
      },
      "properties": {
        "label": "Cucumber",
        "level": 3,
        "pos": "1435.44,-76.23",
        "weight": "0.0"
      }
    },
    {
      "type": "Feature",
      "id": "320",
      "geometry": {
        "type": "Point",
        "coordinates": [
          16.324728,
          -4.430397
        ]
      },
      "properties": {
        "label": "Casein",
        "level": 3,
        "pos": "3419.44,1587.48",
        "weight": "0.0"
      }
    },
    {
      "type": "Feature",
      "id": "321",
      "geometry": {
        "type": "Point",
        "coordinates": [
          10.152283,
          -6.472693
        ]
      },
      "properties": {
        "label": "Hummus",
        "level": 3,
        "pos": "1660.92,274.41",
        "weight": "0.0"
      }
    },
    {
      "type": "Feature",
      "id": "324",
      "geometry": {
        "type": "Point",
        "coordinates": [
          33.831034,
          -11.254857
        ]
      },
      "properties": {
        "label": "Heart of palm",
        "level": 3,
        "pos": "8406.96,-2824.09",
        "weight": "0.0"
      }
    },
    {
      "type": "Feature",
      "id": "332",
      "geometry": {
        "type": "Point",
        "coordinates": [
          11.678897,
          -9.568363
        ]
      },
      "properties": {
        "label": "Pita bread",
        "level": 3,
        "pos": "2095.85,-1726.63",
        "weight": "0.0"
      }
    },
    {
      "type": "Feature",
      "id": "335",
      "geometry": {
        "type": "Point",
        "coordinates": [
          14.600956,
          -9.350058
        ]
      },
      "properties": {
        "label": "Potato puffs",
        "level": 3,
        "pos": "2928.34,-1584.99",
        "weight": "0.0"
      }
    },
    {
      "type": "Feature",
      "id": "337",
      "geometry": {
        "type": "Point",
        "coordinates": [
          16.186047,
          -5.321159
        ]
      },
      "properties": {
        "label": "Couscous",
        "level": 3,
        "pos": "3379.93,1015.32",
        "weight": "0.0"
      }
    },
    {
      "type": "Feature",
      "id": "340",
      "geometry": {
        "type": "Point",
        "coordinates": [
          5.929446,
          -12.281646
        ]
      },
      "properties": {
        "label": "Dock",
        "level": 3,
        "pos": "457.84,-3495.35",
        "weight": "0.0"
      }
    },
    {
      "type": "Feature",
      "id": "344",
      "geometry": {
        "type": "Point",
        "coordinates": [
          11.146778,
          -5.998094
        ]
      },
      "properties": {
        "label": "White cabbage",
        "level": 3,
        "pos": "1944.25,579.96",
        "weight": "0.0"
      }
    },
    {
      "type": "Feature",
      "id": "345",
      "geometry": {
        "type": "Point",
        "coordinates": [
          27.522471,
          -0.550206
        ]
      },
      "properties": {
        "label": "Oriental wheat",
        "level": 4,
        "pos": "6609.66,4073.61",
        "weight": "0.0"
      }
    },
    {
      "type": "Feature",
      "id": "355",
      "geometry": {
        "type": "Point",
        "coordinates": [
          8.348729,
          -7.457645
        ]
      },
      "properties": {
        "label": "Ketchup",
        "level": 3,
        "pos": "1147.09,-360.65",
        "weight": "0.0"
      }
    },
    {
      "type": "Feature",
      "id": "359",
      "geometry": {
        "type": "Point",
        "coordinates": [
          10.069728,
          -6.608709
        ]
      },
      "properties": {
        "label": "Succotash",
        "level": 3,
        "pos": "1637.40,186.79",
        "weight": "0.0"
      }
    },
    {
      "type": "Feature",
      "id": "368",
      "geometry": {
        "type": "Point",
        "coordinates": [
          6.614953,
          -6.117191
        ]
      },
      "properties": {
        "label": "Common cabbage",
        "level": 4,
        "pos": "653.14,503.31",
        "weight": "0.0"
      }
    },
    {
      "type": "Feature",
      "id": "370",
      "geometry": {
        "type": "Point",
        "coordinates": [
          17.580368,
          -2.991137
        ]
      },
      "properties": {
        "label": "Potato gratin",
        "level": 3,
        "pos": "3777.17,2510.56",
        "weight": "0.0"
      }
    },
    {
      "type": "Feature",
      "id": "372",
      "geometry": {
        "type": "Point",
        "coordinates": [
          8.20373,
          -7.499552
        ]
      },
      "properties": {
        "label": "Cassava",
        "level": 3,
        "pos": "1105.78,-387.70",
        "weight": "0.0"
      }
    },
    {
      "type": "Feature",
      "id": "373",
      "geometry": {
        "type": "Point",
        "coordinates": [
          18.005432,
          -6.493605
        ]
      },
      "properties": {
        "label": "Marzipan",
        "level": 3,
        "pos": "3898.27,260.94",
        "weight": "0.0"
      }
    },
    {
      "type": "Feature",
      "id": "376",
      "geometry": {
        "type": "Point",
        "coordinates": [
          9.361686,
          -10.180672
        ]
      },
      "properties": {
        "label": "Rice bread",
        "level": 3,
        "pos": "1435.68,-2124.40",
        "weight": "0.0"
      }
    },
    {
      "type": "Feature",
      "id": "381",
      "geometry": {
        "type": "Point",
        "coordinates": [
          10.664536,
          -6.281119
        ]
      },
      "properties": {
        "label": "Arepa",
        "level": 3,
        "pos": "1806.86,397.78",
        "weight": "0.0"
      }
    },
    {
      "type": "Feature",
      "id": "382",
      "geometry": {
        "type": "Point",
        "coordinates": [
          9.97959,
          -6.506429
        ]
      },
      "properties": {
        "label": "Edible shell",
        "level": 3,
        "pos": "1611.72,252.68",
        "weight": "0.0"
      }
    },
    {
      "type": "Feature",
      "id": "394",
      "geometry": {
        "type": "Point",
        "coordinates": [
          17.549024,
          -5.389936
        ]
      },
      "properties": {
        "label": "Leek",
        "level": 3,
        "pos": "3768.24,971.11",
        "weight": "0.0"
      }
    },
    {
      "type": "Feature",
      "id": "395",
      "geometry": {
        "type": "Point",
        "coordinates": [
          10.284295,
          0.928802
        ]
      },
      "properties": {
        "label": "Maitake",
        "level": 4,
        "pos": "1698.53,5020.20",
        "weight": "0.0"
      }
    },
    {
      "type": "Feature",
      "id": "396",
      "geometry": {
        "type": "Point",
        "coordinates": [
          6.026322,
          -3.482541
        ]
      },
      "properties": {
        "label": "Fennel",
        "level": 4,
        "pos": "485.44,2195.56",
        "weight": "0.0"
      }
    },
    {
      "type": "Feature",
      "id": "401",
      "geometry": {
        "type": "Point",
        "coordinates": [
          9.356807,
          -6.855342
        ]
      },
      "properties": {
        "label": "Pineapple",
        "level": 3,
        "pos": "1434.29,27.85",
        "weight": "0.0"
      }
    },
    {
      "type": "Feature",
      "id": "403",
      "geometry": {
        "type": "Point",
        "coordinates": [
          26.370973,
          -3.53853
        ]
      },
      "properties": {
        "label": "Carrot",
        "level": 4,
        "pos": "6281.60,2159.66",
        "weight": "0.0"
      }
    },
    {
      "type": "Feature",
      "id": "404",
      "geometry": {
        "type": "Point",
        "coordinates": [
          20.129697,
          -7.378764
        ]
      },
      "properties": {
        "label": "Daikon radish",
        "level": 3,
        "pos": "4503.47,-309.74",
        "weight": "0.0"
      }
    },
    {
      "type": "Feature",
      "id": "406",
      "geometry": {
        "type": "Point",
        "coordinates": [
          28.16484,
          -7.578024
        ]
      },
      "properties": {
        "label": "Garden tomato",
        "level": 4,
        "pos": "6792.67,-438.36",
        "weight": "0.0"
      }
    },
    {
      "type": "Feature",
      "id": "408",
      "geometry": {
        "type": "Point",
        "coordinates": [
          30.79841,
          -10.902652
        ]
      },
      "properties": {
        "label": "Marshmallow",
        "level": 3,
        "pos": "7542.97,-2594.40",
        "weight": "0.0"
      }
    },
    {
      "type": "Feature",
      "id": "410",
      "geometry": {
        "type": "Point",
        "coordinates": [
          9.901317,
          -6.634505
        ]
      },
      "properties": {
        "label": "Watermelon",
        "level": 3,
        "pos": "1589.42,170.17",
        "weight": "0.0"
      }
    },
    {
      "type": "Feature",
      "id": "412",
      "geometry": {
        "type": "Point",
        "coordinates": [
          32.814637,
          -5.878628
        ]
      },
      "properties": {
        "label": "Yam",
        "level": 4,
        "pos": "8117.39,656.83",
        "weight": "0.0"
      }
    },
    {
      "type": "Feature",
      "id": "413",
      "geometry": {
        "type": "Point",
        "coordinates": [
          10.20195,
          -6.425493
        ]
      },
      "properties": {
        "label": "Green bell pepper",
        "level": 3,
        "pos": "1675.07,304.81",
        "weight": "0.0"
      }
    },
    {
      "type": "Feature",
      "id": "417",
      "geometry": {
        "type": "Point",
        "coordinates": [
          18.513262,
          0.135055
        ]
      },
      "properties": {
        "label": "Barley",
        "level": 4,
        "pos": "4042.95,4512.18",
        "weight": "0.0"
      }
    },
    {
      "type": "Feature",
      "id": "419",
      "geometry": {
        "type": "Point",
        "coordinates": [
          2.304646,
          -7.506321
        ]
      },
      "properties": {
        "label": "Red raspberry",
        "level": 4,
        "pos": "-574.86,-392.07",
        "weight": "0.0"
      }
    },
    {
      "type": "Feature",
      "id": "420",
      "geometry": {
        "type": "Point",
        "coordinates": [
          31.730005,
          -10.589537
        ]
      },
      "properties": {
        "label": "Natto",
        "level": 3,
        "pos": "7808.38,-2390.43",
        "weight": "0.0"
      }
    },
    {
      "type": "Feature",
      "id": "421",
      "geometry": {
        "type": "Point",
        "coordinates": [
          21.787516,
          -8.272685
        ]
      },
      "properties": {
        "label": "Japanese chestnut",
        "level": 3,
        "pos": "4975.78,-887.23",
        "weight": "0.0"
      }
    },
    {
      "type": "Feature",
      "id": "423",
      "geometry": {
        "type": "Point",
        "coordinates": [
          33.177749,
          -7.366785
        ]
      },
      "properties": {
        "label": "Garden rhubarb",
        "level": 4,
        "pos": "8220.84,-302.01",
        "weight": "0.0"
      }
    },
    {
      "type": "Feature",
      "id": "425",
      "geometry": {
        "type": "Point",
        "coordinates": [
          16.693315,
          -6.016601
        ]
      },
      "properties": {
        "label": "Tortilla",
        "level": 3,
        "pos": "3524.45,568.05",
        "weight": "0.0"
      }
    },
    {
      "type": "Feature",
      "id": "427",
      "geometry": {
        "type": "Point",
        "coordinates": [
          10.149546,
          -6.119491
        ]
      },
      "properties": {
        "label": "Chicory",
        "level": 3,
        "pos": "1660.14,501.83",
        "weight": "0.0"
      }
    },
    {
      "type": "Feature",
      "id": "429",
      "geometry": {
        "type": "Point",
        "coordinates": [
          8.69436,
          -10.85731
        ]
      },
      "properties": {
        "label": "Garden tomato (var.)",
        "level": 3,
        "pos": "1245.56,-2564.85",
        "weight": "0.0"
      }
    },
    {
      "type": "Feature",
      "id": "431",
      "geometry": {
        "type": "Point",
        "coordinates": [
          8.449501,
          -7.345664
        ]
      },
      "properties": {
        "label": "Sunflower",
        "level": 3,
        "pos": "1175.80,-288.38",
        "weight": "0.0"
      }
    },
    {
      "type": "Feature",
      "id": "433",
      "geometry": {
        "type": "Point",
        "coordinates": [
          6.877187,
          -9.805435
        ]
      },
      "properties": {
        "label": "Common persimmon",
        "level": 3,
        "pos": "727.85,-1880.55",
        "weight": "0.0"
      }
    },
    {
      "type": "Feature",
      "id": "434",
      "geometry": {
        "type": "Point",
        "coordinates": [
          16.199315,
          -4.781761
        ]
      },
      "properties": {
        "label": "Rosemary",
        "level": 3,
        "pos": "3383.71,1361.88",
        "weight": "0.0"
      }
    },
    {
      "type": "Feature",
      "id": "437",
      "geometry": {
        "type": "Point",
        "coordinates": [
          29.399245,
          -6.648131
        ]
      },
      "properties": {
        "label": "Hedge mustard",
        "level": 4,
        "pos": "7144.35,161.39",
        "weight": "0.0"
      }
    },
    {
      "type": "Feature",
      "id": "442",
      "geometry": {
        "type": "Point",
        "coordinates": [
          11.073805,
          0.932145
        ]
      },
      "properties": {
        "label": "Lima bean",
        "level": 4,
        "pos": "1923.46,5022.34",
        "weight": "0.0"
      }
    },
    {
      "type": "Feature",
      "id": "443",
      "geometry": {
        "type": "Point",
        "coordinates": [
          17.407394,
          -4.847793
        ]
      },
      "properties": {
        "label": "Mamey sapote",
        "level": 3,
        "pos": "3727.89,1319.47",
        "weight": "0.0"
      }
    },
    {
      "type": "Feature",
      "id": "449",
      "geometry": {
        "type": "Point",
        "coordinates": [
          26.568693,
          -9.057358
        ]
      },
      "properties": {
        "label": "Poppy",
        "level": 3,
        "pos": "6337.93,-1395.22",
        "weight": "0.0"
      }
    },
    {
      "type": "Feature",
      "id": "454",
      "geometry": {
        "type": "Point",
        "coordinates": [
          6.086098,
          -6.348893
        ]
      },
      "properties": {
        "label": "Common walnut",
        "level": 4,
        "pos": "502.47,354.14",
        "weight": "0.0"
      }
    },
    {
      "type": "Feature",
      "id": "455",
      "geometry": {
        "type": "Point",
        "coordinates": [
          34.797168,
          -12.24972
        ]
      },
      "properties": {
        "label": "Breadnut tree seed",
        "level": 3,
        "pos": "8682.21,-3474.44",
        "weight": "0.0"
      }
    },
    {
      "type": "Feature",
      "id": "456",
      "geometry": {
        "type": "Point",
        "coordinates": [
          18.426775,
          -2.718318
        ]
      },
      "properties": {
        "label": "Celeriac",
        "level": 3,
        "pos": "4018.31,2685.38",
        "weight": "0.0"
      }
    },
    {
      "type": "Feature",
      "id": "457",
      "geometry": {
        "type": "Point",
        "coordinates": [
          7.666696,
          -10.379477
        ]
      },
      "properties": {
        "label": "Lambsquarters",
        "level": 4,
        "pos": "952.78,-2253.71",
        "weight": "0.0"
      }
    },
    {
      "type": "Feature",
      "id": "459",
      "geometry": {
        "type": "Point",
        "coordinates": [
          10.248037,
          -6.347697
        ]
      },
      "properties": {
        "label": "Strawberry guava",
        "level": 3,
        "pos": "1688.20,354.91",
        "weight": "0.0"
      }
    },
    {
      "type": "Feature",
      "id": "460",
      "geometry": {
        "type": "Point",
        "coordinates": [
          8.651292,
          -7.034178
        ]
      },
      "properties": {
        "label": "Welsh onion",
        "level": 3,
        "pos": "1233.29,-87.45",
        "weight": "0.0"
      }
    },
    {
      "type": "Feature",
      "id": "461",
      "geometry": {
        "type": "Point",
        "coordinates": [
          9.999141,
          -6.413863
        ]
      },
      "properties": {
        "label": "Yardlong bean",
        "level": 3,
        "pos": "1617.29,312.30",
        "weight": "0.0"
      }
    },
    {
      "type": "Feature",
      "id": "463",
      "geometry": {
        "type": "Point",
        "coordinates": [
          16.732417,
          -4.915998
        ]
      },
      "properties": {
        "label": "Parsnip",
        "level": 3,
        "pos": "3535.59,1275.66",
        "weight": "0.0"
      }
    },
    {
      "type": "Feature",
      "id": "466",
      "geometry": {
        "type": "Point",
        "coordinates": [
          9.985663,
          -6.58271
        ]
      },
      "properties": {
        "label": "Parsley",
        "level": 3,
        "pos": "1613.45,203.54",
        "weight": "0.0"
      }
    },
    {
      "type": "Feature",
      "id": "471",
      "geometry": {
        "type": "Point",
        "coordinates": [
          32.79621,
          -11.074445
        ]
      },
      "properties": {
        "label": "Broccoli",
        "level": 3,
        "pos": "8112.14,-2706.40",
        "weight": "0.0"
      }
    },
    {
      "type": "Feature",
      "id": "474",
      "geometry": {
        "type": "Point",
        "coordinates": [
          9.18643,
          -9.327795
        ]
      },
      "properties": {
        "label": "Grapefruit",
        "level": 3,
        "pos": "1385.75,-1570.55",
        "weight": "0.0"
      }
    },
    {
      "type": "Feature",
      "id": "478",
      "geometry": {
        "type": "Point",
        "coordinates": [
          11.461767,
          -5.954162
        ]
      },
      "properties": {
        "label": "Star fruit",
        "level": 3,
        "pos": "2033.99,608.23",
        "weight": "0.0"
      }
    },
    {
      "type": "Feature",
      "id": "480",
      "geometry": {
        "type": "Point",
        "coordinates": [
          15.096536,
          -8.826124
        ]
      },
      "properties": {
        "label": "Cauliflower",
        "level": 3,
        "pos": "3069.53,-1245.41",
        "weight": "0.0"
      }
    },
    {
      "type": "Feature",
      "id": "481",
      "geometry": {
        "type": "Point",
        "coordinates": [
          16.850108,
          -5.814028
        ]
      },
      "properties": {
        "label": "Mung bean",
        "level": 3,
        "pos": "3569.12,698.39",
        "weight": "0.0"
      }
    },
    {
      "type": "Feature",
      "id": "484",
      "geometry": {
        "type": "Point",
        "coordinates": [
          16.696369,
          -12.279035
        ]
      },
      "properties": {
        "label": "Radish",
        "level": 4,
        "pos": "3525.32,-3493.64",
        "weight": "0.0"
      }
    },
    {
      "type": "Feature",
      "id": "485",
      "geometry": {
        "type": "Point",
        "coordinates": [
          6.383432,
          -2.962254
        ]
      },
      "properties": {
        "label": "Soft-necked garlic",
        "level": 4,
        "pos": "587.18,2529.07",
        "weight": "0.0"
      }
    },
    {
      "type": "Feature",
      "id": "486",
      "geometry": {
        "type": "Point",
        "coordinates": [
          6.341487,
          -3.403449
        ]
      },
      "properties": {
        "label": "Fig",
        "level": 4,
        "pos": "575.23,2246.27",
        "weight": "0.0"
      }
    },
    {
      "type": "Feature",
      "id": "488",
      "geometry": {
        "type": "Point",
        "coordinates": [
          6.917868,
          -5.818272
        ]
      },
      "properties": {
        "label": "Garlic",
        "level": 4,
        "pos": "739.44,695.66",
        "weight": "0.0"
      }
    },
    {
      "type": "Feature",
      "id": "489",
      "geometry": {
        "type": "Point",
        "coordinates": [
          16.434556,
          -5.24822
        ]
      },
      "properties": {
        "label": "American cranberry",
        "level": 3,
        "pos": "3450.73,1062.20",
        "weight": "0.0"
      }
    },
    {
      "type": "Feature",
      "id": "491",
      "geometry": {
        "type": "Point",
        "coordinates": [
          14.980284,
          -8.513424
        ]
      },
      "properties": {
        "label": "Macadamia nut",
        "level": 3,
        "pos": "3036.41,-1042.97",
        "weight": "0.0"
      }
    },
    {
      "type": "Feature",
      "id": "501",
      "geometry": {
        "type": "Point",
        "coordinates": [
          32.594348,
          -12.0119
        ]
      },
      "properties": {
        "label": "Common oregano",
        "level": 3,
        "pos": "8054.63,-3318.76",
        "weight": "0.0"
      }
    },
    {
      "type": "Feature",
      "id": "502",
      "geometry": {
        "type": "Point",
        "coordinates": [
          17.518627,
          -8.746707
        ]
      },
      "properties": {
        "label": "Garden cress",
        "level": 3,
        "pos": "3759.58,-1193.98",
        "weight": "0.0"
      }
    },
    {
      "type": "Feature",
      "id": "503",
      "geometry": {
        "type": "Point",
        "coordinates": [
          7.281612,
          -3.171861
        ]
      },
      "properties": {
        "label": "Enokitake",
        "level": 4,
        "pos": "843.07,2394.73",
        "weight": "0.0"
      }
    },
    {
      "type": "Feature",
      "id": "508",
      "geometry": {
        "type": "Point",
        "coordinates": [
          11.446358,
          -5.978933
        ]
      },
      "properties": {
        "label": "Chinese cabbage",
        "level": 3,
        "pos": "2029.60,592.29",
        "weight": "0.0"
      }
    },
    {
      "type": "Feature",
      "id": "509",
      "geometry": {
        "type": "Point",
        "coordinates": [
          9.430447,
          -6.803773
        ]
      },
      "properties": {
        "label": "Common buckwheat",
        "level": 3,
        "pos": "1455.27,61.09",
        "weight": "0.0"
      }
    },
    {
      "type": "Feature",
      "id": "510",
      "geometry": {
        "type": "Point",
        "coordinates": [
          10.764537,
          -6.237847
        ]
      },
      "properties": {
        "label": "Yellow bell pepper",
        "level": 3,
        "pos": "1835.35,425.64",
        "weight": "0.0"
      }
    },
    {
      "type": "Feature",
      "id": "512",
      "geometry": {
        "type": "Point",
        "coordinates": [
          3.890895,
          -8.820457
        ]
      },
      "properties": {
        "label": "Avocado",
        "level": 4,
        "pos": "-122.94,-1241.74",
        "weight": "0.0"
      }
    },
    {
      "type": "Feature",
      "id": "514",
      "geometry": {
        "type": "Point",
        "coordinates": [
          6.545876,
          -6.737503
        ]
      },
      "properties": {
        "label": "Persimmon",
        "level": 4,
        "pos": "633.46,103.80",
        "weight": "0.0"
      }
    },
    {
      "type": "Feature",
      "id": "515",
      "geometry": {
        "type": "Point",
        "coordinates": [
          10.045473,
          -6.678208
        ]
      },
      "properties": {
        "label": "Mango",
        "level": 3,
        "pos": "1630.49,142.01",
        "weight": "0.0"
      }
    },
    {
      "type": "Feature",
      "id": "518",
      "geometry": {
        "type": "Point",
        "coordinates": [
          18.460576,
          -6.823585
        ]
      },
      "properties": {
        "label": "Cherimoya",
        "level": 3,
        "pos": "4027.94,48.32",
        "weight": "0.0"
      }
    },
    {
      "type": "Feature",
      "id": "519",
      "geometry": {
        "type": "Point",
        "coordinates": [
          10.400196,
          -6.302536
        ]
      },
      "properties": {
        "label": "Watercress",
        "level": 3,
        "pos": "1731.55,383.99",
        "weight": "0.0"
      }
    },
    {
      "type": "Feature",
      "id": "52",
      "geometry": {
        "type": "Point",
        "coordinates": [
          1.849852,
          -7.970851
        ]
      },
      "properties": {
        "label": "Longan",
        "level": 4,
        "pos": "-704.43,-692.10",
        "weight": "0.0"
      }
    },
    {
      "type": "Feature",
      "id": "520",
      "geometry": {
        "type": "Point",
        "coordinates": [
          9.411388,
          -6.778141
        ]
      },
      "properties": {
        "label": "Pear",
        "level": 3,
        "pos": "1449.84,77.61",
        "weight": "0.0"
      }
    },
    {
      "type": "Feature",
      "id": "521",
      "geometry": {
        "type": "Point",
        "coordinates": [
          8.570843,
          -9.671656
        ]
      },
      "properties": {
        "label": "Evening primrose",
        "level": 3,
        "pos": "1210.37,-1793.68",
        "weight": "0.0"
      }
    },
    {
      "type": "Feature",
      "id": "523",
      "geometry": {
        "type": "Point",
        "coordinates": [
          26.95297,
          -5.23613
        ]
      },
      "properties": {
        "label": "Black cabbage",
        "level": 4,
        "pos": "6447.41,1069.97",
        "weight": "0.0"
      }
    },
    {
      "type": "Feature",
      "id": "524",
      "geometry": {
        "type": "Point",
        "coordinates": [
          6.680906,
          -8.401497
        ]
      },
      "properties": {
        "label": "Spirulina",
        "level": 3,
        "pos": "671.93,-970.55",
        "weight": "0.0"
      }
    },
    {
      "type": "Feature",
      "id": "528",
      "geometry": {
        "type": "Point",
        "coordinates": [
          14.425314,
          -12.444454
        ]
      },
      "properties": {
        "label": "Bamboo shoots",
        "level": 4,
        "pos": "2878.30,-3602.02",
        "weight": "0.0"
      }
    },
    {
      "type": "Feature",
      "id": "531",
      "geometry": {
        "type": "Point",
        "coordinates": [
          10.126765,
          -6.356099
        ]
      },
      "properties": {
        "label": "Horseradish",
        "level": 3,
        "pos": "1653.65,349.50",
        "weight": "0.0"
      }
    },
    {
      "type": "Feature",
      "id": "533",
      "geometry": {
        "type": "Point",
        "coordinates": [
          23.512692,
          -8.968685
        ]
      },
      "properties": {
        "label": "Catjang pea",
        "level": 3,
        "pos": "5467.28,-1337.76",
        "weight": "0.0"
      }
    },
    {
      "type": "Feature",
      "id": "535",
      "geometry": {
        "type": "Point",
        "coordinates": [
          10.011391,
          -6.610044
        ]
      },
      "properties": {
        "label": "Millet",
        "level": 3,
        "pos": "1620.78,185.93",
        "weight": "0.0"
      }
    },
    {
      "type": "Feature",
      "id": "536",
      "geometry": {
        "type": "Point",
        "coordinates": [
          10.367272,
          -6.345011
        ]
      },
      "properties": {
        "label": "Shiitake",
        "level": 3,
        "pos": "1722.17,356.64",
        "weight": "0.0"
      }
    },
    {
      "type": "Feature",
      "id": "54",
      "geometry": {
        "type": "Point",
        "coordinates": [
          33.464764,
          -3.256915
        ]
      },
      "properties": {
        "label": "Chinese cinnamon",
        "level": 4,
        "pos": "8302.61,2340.21",
        "weight": "0.0"
      }
    },
    {
      "type": "Feature",
      "id": "544",
      "geometry": {
        "type": "Point",
        "coordinates": [
          22.598963,
          -7.386186
        ]
      },
      "properties": {
        "label": "Wild carrot",
        "level": 3,
        "pos": "5206.96,-314.53",
        "weight": "0.0"
      }
    },
    {
      "type": "Feature",
      "id": "545",
      "geometry": {
        "type": "Point",
        "coordinates": [
          11.340145,
          -5.801996
        ]
      },
      "properties": {
        "label": "Chayote",
        "level": 3,
        "pos": "1999.34,706.13",
        "weight": "0.0"
      }
    },
    {
      "type": "Feature",
      "id": "560",
      "geometry": {
        "type": "Point",
        "coordinates": [
          17.089878,
          -3.744443
        ]
      },
      "properties": {
        "label": "Sapodilla",
        "level": 3,
        "pos": "3637.43,2027.61",
        "weight": "0.0"
      }
    },
    {
      "type": "Feature",
      "id": "561",
      "geometry": {
        "type": "Point",
        "coordinates": [
          16.209108,
          -3.887501
        ]
      },
      "properties": {
        "label": "Cloves",
        "level": 3,
        "pos": "3386.50,1935.85",
        "weight": "0.0"
      }
    },
    {
      "type": "Feature",
      "id": "562",
      "geometry": {
        "type": "Point",
        "coordinates": [
          6.310143,
          -6.653501
        ]
      },
      "properties": {
        "label": "Rye",
        "level": 4,
        "pos": "566.30,157.93",
        "weight": "0.0"
      }
    },
    {
      "type": "Feature",
      "id": "564",
      "geometry": {
        "type": "Point",
        "coordinates": [
          12.426673,
          -5.369542
        ]
      },
      "properties": {
        "label": "Eggplant",
        "level": 3,
        "pos": "2308.89,984.22",
        "weight": "0.0"
      }
    },
    {
      "type": "Feature",
      "id": "565",
      "geometry": {
        "type": "Point",
        "coordinates": [
          7.209235,
          -5.587294
        ]
      },
      "properties": {
        "label": "Blackcurrant",
        "level": 4,
        "pos": "822.45,844.22",
        "weight": "0.0"
      }
    },
    {
      "type": "Feature",
      "id": "566",
      "geometry": {
        "type": "Point",
        "coordinates": [
          10.290227,
          -6.370012
        ]
      },
      "properties": {
        "label": "Sweet cherry",
        "level": 3,
        "pos": "1700.22,340.54",
        "weight": "0.0"
      }
    },
    {
      "type": "Feature",
      "id": "569",
      "geometry": {
        "type": "Point",
        "coordinates": [
          6.816183,
          -8.577363
        ]
      },
      "properties": {
        "label": "Black walnut",
        "level": 3,
        "pos": "710.47,-1084.35",
        "weight": "0.0"
      }
    },
    {
      "type": "Feature",
      "id": "57",
      "geometry": {
        "type": "Point",
        "coordinates": [
          29.329922,
          -8.234893
        ]
      },
      "properties": {
        "label": "Asian pear",
        "level": 4,
        "pos": "7124.60,-862.79",
        "weight": "0.0"
      }
    },
    {
      "type": "Feature",
      "id": "570",
      "geometry": {
        "type": "Point",
        "coordinates": [
          8.260732,
          -7.688289
        ]
      },
      "properties": {
        "label": "Strawberry",
        "level": 3,
        "pos": "1122.02,-509.56",
        "weight": "0.0"
      }
    },
    {
      "type": "Feature",
      "id": "572",
      "geometry": {
        "type": "Point",
        "coordinates": [
          10.033258,
          -6.466017
        ]
      },
      "properties": {
        "label": "Pepper (C. annuum)",
        "level": 3,
        "pos": "1627.01,278.71",
        "weight": "0.0"
      }
    },
    {
      "type": "Feature",
      "id": "573",
      "geometry": {
        "type": "Point",
        "coordinates": [
          30.355165,
          -0.530379
        ]
      },
      "properties": {
        "label": "Wild rice",
        "level": 4,
        "pos": "7416.69,4086.30",
        "weight": "0.0"
      }
    },
    {
      "type": "Feature",
      "id": "575",
      "geometry": {
        "type": "Point",
        "coordinates": [
          10.84976,
          -6.277531
        ]
      },
      "properties": {
        "label": "European plum",
        "level": 3,
        "pos": "1859.63,400.09",
        "weight": "0.0"
      }
    },
    {
      "type": "Feature",
      "id": "58",
      "geometry": {
        "type": "Point",
        "coordinates": [
          15.078319,
          -11.740599
        ]
      },
      "properties": {
        "label": "Quinoa",
        "level": 4,
        "pos": "3064.34,-3141.33",
        "weight": "0.0"
      }
    },
    {
      "type": "Feature",
      "id": "580",
      "geometry": {
        "type": "Point",
        "coordinates": [
          27.93883,
          -5.469002
        ]
      },
      "properties": {
        "label": "Yellow wax bean",
        "level": 4,
        "pos": "6728.28,920.28",
        "weight": "0.0"
      }
    },
    {
      "type": "Feature",
      "id": "584",
      "geometry": {
        "type": "Point",
        "coordinates": [
          12.5782,
          -5.142235
        ]
      },
      "properties": {
        "label": "Loquat",
        "level": 3,
        "pos": "2352.06,1130.31",
        "weight": "0.0"
      }
    },
    {
      "type": "Feature",
      "id": "59",
      "geometry": {
        "type": "Point",
        "coordinates": [
          28.710473,
          -10.492207
        ]
      },
      "properties": {
        "label": "Nopal",
        "level": 3,
        "pos": "6948.12,-2327.07",
        "weight": "0.0"
      }
    },
    {
      "type": "Feature",
      "id": "591",
      "geometry": {
        "type": "Point",
        "coordinates": [
          12.59045,
          -9.084484
        ]
      },
      "properties": {
        "label": "Malus (Crab apple)",
        "level": 3,
        "pos": "2355.55,-1412.80",
        "weight": "0.0"
      }
    },
    {
      "type": "Feature",
      "id": "592",
      "geometry": {
        "type": "Point",
        "coordinates": [
          0.970907,
          -12.176172
        ]
      },
      "properties": {
        "label": "Ginkgo nuts",
        "level": 4,
        "pos": "-954.84,-3426.28",
        "weight": "0.0"
      }
    },
    {
      "type": "Feature",
      "id": "595",
      "geometry": {
        "type": "Point",
        "coordinates": [
          14.303587,
          0.765209
        ]
      },
      "properties": {
        "label": "Apricot",
        "level": 4,
        "pos": "2843.62,4915.49",
        "weight": "0.0"
      }
    },
    {
      "type": "Feature",
      "id": "597",
      "geometry": {
        "type": "Point",
        "coordinates": [
          10.529997,
          -6.278882
        ]
      },
      "properties": {
        "label": "Peppermint",
        "level": 3,
        "pos": "1768.53,399.22",
        "weight": "0.0"
      }
    },
    {
      "type": "Feature",
      "id": "598",
      "geometry": {
        "type": "Point",
        "coordinates": [
          11.051937,
          -5.933041
        ]
      },
      "properties": {
        "label": "Sorghum",
        "level": 3,
        "pos": "1917.23,621.82",
        "weight": "0.0"
      }
    },
    {
      "type": "Feature",
      "id": "600",
      "geometry": {
        "type": "Point",
        "coordinates": [
          13.048613,
          -5.125941
        ]
      },
      "properties": {
        "label": "Colorado pinyon",
        "level": 3,
        "pos": "2486.08,1140.78",
        "weight": "0.0"
      }
    },
    {
      "type": "Feature",
      "id": "601",
      "geometry": {
        "type": "Point",
        "coordinates": [
          25.512317,
          -2.759693
        ]
      },
      "properties": {
        "label": "Olive",
        "level": 4,
        "pos": "6036.97,2658.87",
        "weight": "0.0"
      }
    },
    {
      "type": "Feature",
      "id": "603",
      "geometry": {
        "type": "Point",
        "coordinates": [
          2.818723,
          -8.071683
        ]
      },
      "properties": {
        "label": "Peach",
        "level": 4,
        "pos": "-428.40,-757.27",
        "weight": "0.0"
      }
    },
    {
      "type": "Feature",
      "id": "604",
      "geometry": {
        "type": "Point",
        "coordinates": [
          11.156606,
          -5.817448
        ]
      },
      "properties": {
        "label": "Chervil",
        "level": 3,
        "pos": "1947.05,696.19",
        "weight": "0.0"
      }
    },
    {
      "type": "Feature",
      "id": "607",
      "geometry": {
        "type": "Point",
        "coordinates": [
          8.209872,
          -9.063932
        ]
      },
      "properties": {
        "label": "French plantain",
        "level": 3,
        "pos": "1107.53,-1399.48",
        "weight": "0.0"
      }
    },
    {
      "type": "Feature",
      "id": "609",
      "geometry": {
        "type": "Point",
        "coordinates": [
          10.865415,
          -6.212295
        ]
      },
      "properties": {
        "label": "Oat",
        "level": 3,
        "pos": "1864.09,442.09",
        "weight": "0.0"
      }
    },
    {
      "type": "Feature",
      "id": "612",
      "geometry": {
        "type": "Point",
        "coordinates": [
          33.617625,
          -9.690001
        ]
      },
      "properties": {
        "label": "Asparagus",
        "level": 4,
        "pos": "8346.16,-1805.59",
        "weight": "0.0"
      }
    },
    {
      "type": "Feature",
      "id": "616",
      "geometry": {
        "type": "Point",
        "coordinates": [
          17.72628,
          -6.260167
        ]
      },
      "properties": {
        "label": "Sweet potato",
        "level": 3,
        "pos": "3818.74,411.27",
        "weight": "0.0"
      }
    },
    {
      "type": "Feature",
      "id": "617",
      "geometry": {
        "type": "Point",
        "coordinates": [
          16.46369,
          -9.127421
        ]
      },
      "properties": {
        "label": "European chestnut",
        "level": 3,
        "pos": "3459.03,-1440.63",
        "weight": "0.0"
      }
    },
    {
      "type": "Feature",
      "id": "620",
      "geometry": {
        "type": "Point",
        "coordinates": [
          10.078573,
          -6.561708
        ]
      },
      "properties": {
        "label": "Highbush blueberry",
        "level": 3,
        "pos": "1639.92,217.07",
        "weight": "0.0"
      }
    },
    {
      "type": "Feature",
      "id": "629",
      "geometry": {
        "type": "Point",
        "coordinates": [
          8.521527,
          -7.464493
        ]
      },
      "properties": {
        "label": "Lettuce",
        "level": 3,
        "pos": "1196.32,-365.07",
        "weight": "0.0"
      }
    },
    {
      "type": "Feature",
      "id": "632",
      "geometry": {
        "type": "Point",
        "coordinates": [
          8.838728,
          -11.73275
        ]
      },
      "properties": {
        "label": "Winged bean",
        "level": 4,
        "pos": "1286.69,-3136.20",
        "weight": "0.0"
      }
    },
    {
      "type": "Feature",
      "id": "635",
      "geometry": {
        "type": "Point",
        "coordinates": [
          16.967939,
          -9.721989
        ]
      },
      "properties": {
        "label": "Jute",
        "level": 4,
        "pos": "3602.69,-1826.36",
        "weight": "0.0"
      }
    },
    {
      "type": "Feature",
      "id": "637",
      "geometry": {
        "type": "Point",
        "coordinates": [
          10.102897,
          -6.45372
        ]
      },
      "properties": {
        "label": "Acorn",
        "level": 3,
        "pos": "1646.85,286.63",
        "weight": "0.0"
      }
    },
    {
      "type": "Feature",
      "id": "640",
      "geometry": {
        "type": "Point",
        "coordinates": [
          11.454431,
          -5.798856
        ]
      },
      "properties": {
        "label": "Swiss chard",
        "level": 3,
        "pos": "2031.90,708.15",
        "weight": "0.0"
      }
    },
    {
      "type": "Feature",
      "id": "65",
      "geometry": {
        "type": "Point",
        "coordinates": [
          27.368767,
          -11.150324
        ]
      },
      "properties": {
        "label": "Brussel sprouts",
        "level": 4,
        "pos": "6565.87,-2755.89",
        "weight": "0.0"
      }
    },
    {
      "type": "Feature",
      "id": "650",
      "geometry": {
        "type": "Point",
        "coordinates": [
          15.425214,
          -10.285956
        ]
      },
      "properties": {
        "label": "Kelp",
        "level": 4,
        "pos": "3163.17,-2192.87",
        "weight": "0.0"
      }
    },
    {
      "type": "Feature",
      "id": "652",
      "geometry": {
        "type": "Point",
        "coordinates": [
          2.119773,
          -7.176809
        ]
      },
      "properties": {
        "label": "Pak choy",
        "level": 4,
        "pos": "-627.53,-179.44",
        "weight": "0.0"
      }
    },
    {
      "type": "Feature",
      "id": "654",
      "geometry": {
        "type": "Point",
        "coordinates": [
          7.623628,
          -12.252758
        ]
      },
      "properties": {
        "label": "Black-eyed pea",
        "level": 4,
        "pos": "940.51,-3476.43",
        "weight": "0.0"
      }
    },
    {
      "type": "Feature",
      "id": "659",
      "geometry": {
        "type": "Point",
        "coordinates": [
          5.581883,
          -3.619996
        ]
      },
      "properties": {
        "label": "Fenugreek",
        "level": 4,
        "pos": "358.82,2107.42",
        "weight": "0.0"
      }
    },
    {
      "type": "Feature",
      "id": "661",
      "geometry": {
        "type": "Point",
        "coordinates": [
          10.131855,
          -6.423816
        ]
      },
      "properties": {
        "label": "Ginger",
        "level": 3,
        "pos": "1655.10,305.89",
        "weight": "0.0"
      }
    },
    {
      "type": "Feature",
      "id": "664",
      "geometry": {
        "type": "Point",
        "coordinates": [
          1.251253,
          -11.789977
        ]
      },
      "properties": {
        "label": "Sesame",
        "level": 3,
        "pos": "-874.97,-3173.61",
        "weight": "0.0"
      }
    },
    {
      "type": "Feature",
      "id": "667",
      "geometry": {
        "type": "Point",
        "coordinates": [
          17.965347,
          -6.969801
        ]
      },
      "properties": {
        "label": "Spinach",
        "level": 3,
        "pos": "3886.85,-45.94",
        "weight": "0.0"
      }
    },
    {
      "type": "Feature",
      "id": "668",
      "geometry": {
        "type": "Point",
        "coordinates": [
          6.575079,
          -6.243842
        ]
      },
      "properties": {
        "label": "Opium poppy",
        "level": 4,
        "pos": "641.78,421.78",
        "weight": "0.0"
      }
    },
    {
      "type": "Feature",
      "id": "67",
      "geometry": {
        "type": "Point",
        "coordinates": [
          14.06659,
          -9.265668
        ]
      },
      "properties": {
        "label": "Burdock",
        "level": 3,
        "pos": "2776.10,-1530.26",
        "weight": "0.0"
      }
    },
    {
      "type": "Feature",
      "id": "671",
      "geometry": {
        "type": "Point",
        "coordinates": [
          7.573505,
          -5.343064
        ]
      },
      "properties": {
        "label": "Pepper (C. frutescens)",
        "level": 4,
        "pos": "926.23,1001.24",
        "weight": "0.0"
      }
    },
    {
      "type": "Feature",
      "id": "674",
      "geometry": {
        "type": "Point",
        "coordinates": [
          3.503108,
          -8.5519
        ]
      },
      "properties": {
        "label": "Soy bean",
        "level": 4,
        "pos": "-233.42,-1067.87",
        "weight": "0.0"
      }
    },
    {
      "type": "Feature",
      "id": "675",
      "geometry": {
        "type": "Point",
        "coordinates": [
          7.971436,
          -5.1784
        ]
      },
      "properties": {
        "label": "Beech nut",
        "level": 4,
        "pos": "1039.60,1107.07",
        "weight": "0.0"
      }
    },
    {
      "type": "Feature",
      "id": "681",
      "geometry": {
        "type": "Point",
        "coordinates": [
          6.731029,
          -6.054593
        ]
      },
      "properties": {
        "label": "Lotus",
        "level": 4,
        "pos": "686.21,543.60",
        "weight": "0.0"
      }
    },
    {
      "type": "Feature",
      "id": "684",
      "geometry": {
        "type": "Point",
        "coordinates": [
          16.083133,
          -8.56117
        ]
      },
      "properties": {
        "label": "Jerusalem artichoke",
        "level": 3,
        "pos": "3350.61,-1073.87",
        "weight": "0.0"
      }
    },
    {
      "type": "Feature",
      "id": "685",
      "geometry": {
        "type": "Point",
        "coordinates": [
          9.985557,
          -6.529917
        ]
      },
      "properties": {
        "label": "Corn",
        "level": 3,
        "pos": "1613.42,237.55",
        "weight": "0.0"
      }
    },
    {
      "type": "Feature",
      "id": "686",
      "geometry": {
        "type": "Point",
        "coordinates": [
          15.175546,
          -9.264064
        ]
      },
      "properties": {
        "label": "Romaine lettuce",
        "level": 3,
        "pos": "3092.04,-1529.22",
        "weight": "0.0"
      }
    },
    {
      "type": "Feature",
      "id": "687",
      "geometry": {
        "type": "Point",
        "coordinates": [
          6.743209,
          -5.862541
        ]
      },
      "properties": {
        "label": "Broad bean",
        "level": 4,
        "pos": "689.68,667.18",
        "weight": "0.0"
      }
    },
    {
      "type": "Feature",
      "id": "688",
      "geometry": {
        "type": "Point",
        "coordinates": [
          12.9722,
          -8.936812
        ]
      },
      "properties": {
        "label": "Falafel",
        "level": 3,
        "pos": "2464.31,-1317.11",
        "weight": "0.0"
      }
    },
    {
      "type": "Feature",
      "id": "69",
      "geometry": {
        "type": "Point",
        "coordinates": [
          8.066417,
          -3.025683
        ]
      },
      "properties": {
        "label": "Purslane",
        "level": 4,
        "pos": "1066.66,2488.42",
        "weight": "0.0"
      }
    },
    {
      "type": "Feature",
      "id": "692",
      "geometry": {
        "type": "Point",
        "coordinates": [
          10.300441,
          -6.340414
        ]
      },
      "properties": {
        "label": "Chia",
        "level": 3,
        "pos": "1703.13,359.60",
        "weight": "0.0"
      }
    },
    {
      "type": "Feature",
      "id": "694",
      "geometry": {
        "type": "Point",
        "coordinates": [
          10.096298,
          -6.646347
        ]
      },
      "properties": {
        "label": "Saskatoon berry",
        "level": 3,
        "pos": "1644.97,162.54",
        "weight": "0.0"
      }
    },
    {
      "type": "Feature",
      "id": "699",
      "geometry": {
        "type": "Point",
        "coordinates": [
          4.296899,
          -10.905445
        ]
      },
      "properties": {
        "label": "Endive",
        "level": 3,
        "pos": "-7.27,-2596.22",
        "weight": "0.0"
      }
    },
    {
      "type": "Feature",
      "id": "7",
      "geometry": {
        "type": "Point",
        "coordinates": [
          -2.32911,
          -13.4398
        ]
      },
      "properties": {
        "height": "0.23",
        "label": "Alzheimer's disease",
        "level": 1,
        "pos": "-1895.01,-4255.65",
        "weight": "290207.0",
        "width": "1.57"
      }
    },
    {
      "type": "Feature",
      "id": "70",
      "geometry": {
        "type": "Point",
        "coordinates": [
          7.757325,
          -9.428802
        ]
      },
      "properties": {
        "label": "Pili nut",
        "level": 3,
        "pos": "978.60,-1636.07",
        "weight": "0.0"
      }
    },
    {
      "type": "Feature",
      "id": "701",
      "geometry": {
        "type": "Point",
        "coordinates": [
          16.19419,
          0.534082
        ]
      },
      "properties": {
        "label": "Hazelnut",
        "level": 4,
        "pos": "3382.25,4767.56",
        "weight": "0.0"
      }
    },
    {
      "type": "Feature",
      "id": "703",
      "geometry": {
        "type": "Point",
        "coordinates": [
          24.369839,
          -12.10922
        ]
      },
      "properties": {
        "label": "Lentils",
        "level": 4,
        "pos": "5711.48,-3382.45",
        "weight": "0.0"
      }
    },
    {
      "type": "Feature",
      "id": "704",
      "geometry": {
        "type": "Point",
        "coordinates": [
          10.330312,
          -6.358474
        ]
      },
      "properties": {
        "label": "Shallot",
        "level": 3,
        "pos": "1711.64,347.97",
        "weight": "0.0"
      }
    },
    {
      "type": "Feature",
      "id": "709",
      "geometry": {
        "type": "Point",
        "coordinates": [
          13.937456,
          -9.880132
        ]
      },
      "properties": {
        "label": "Red bell pepper",
        "level": 3,
        "pos": "2739.31,-1929.07",
        "weight": "0.0"
      }
    },
    {
      "type": "Feature",
      "id": "710",
      "geometry": {
        "type": "Point",
        "coordinates": [
          10.531366,
          -12.066394
        ]
      },
      "properties": {
        "label": "Elderberry",
        "level": 4,
        "pos": "1768.92,-3354.42",
        "weight": "0.0"
      }
    },
    {
      "type": "Feature",
      "id": "711",
      "geometry": {
        "type": "Point",
        "coordinates": [
          10.292719,
          -6.302769
        ]
      },
      "properties": {
        "label": "Wakame",
        "level": 3,
        "pos": "1700.93,383.84",
        "weight": "0.0"
      }
    },
    {
      "type": "Feature",
      "id": "717",
      "geometry": {
        "type": "Point",
        "coordinates": [
          24.693428,
          -11.179051
        ]
      },
      "properties": {
        "label": "Teff",
        "level": 4,
        "pos": "5803.67,-2774.63",
        "weight": "0.0"
      }
    },
    {
      "type": "Feature",
      "id": "719",
      "geometry": {
        "type": "Point",
        "coordinates": [
          10.039963,
          -6.583129
        ]
      },
      "properties": {
        "label": "Safflower",
        "level": 3,
        "pos": "1628.92,203.27",
        "weight": "0.0"
      }
    },
    {
      "type": "Feature",
      "id": "72",
      "geometry": {
        "type": "Point",
        "coordinates": [
          11.518981,
          -10.461769
        ]
      },
      "properties": {
        "label": "Japanese persimmon",
        "level": 3,
        "pos": "2050.29,-2307.26",
        "weight": "0.0"
      }
    },
    {
      "type": "Feature",
      "id": "723",
      "geometry": {
        "type": "Point",
        "coordinates": [
          25.778973,
          -0.296493
        ]
      },
      "properties": {
        "label": "Rapini",
        "level": 4,
        "pos": "6112.94,4235.99",
        "weight": "0.0"
      }
    },
    {
      "type": "Feature",
      "id": "724",
      "geometry": {
        "type": "Point",
        "coordinates": [
          9.828519,
          -6.654821
        ]
      },
      "properties": {
        "label": "Malabar spinach",
        "level": 3,
        "pos": "1568.68,157.08",
        "weight": "0.0"
      }
    },
    {
      "type": "Feature",
      "id": "725",
      "geometry": {
        "type": "Point",
        "coordinates": [
          6.281711,
          -6.518181
        ]
      },
      "properties": {
        "label": "Jackfruit",
        "level": 4,
        "pos": "558.20,245.11",
        "weight": "0.0"
      }
    },
    {
      "type": "Feature",
      "id": "727",
      "geometry": {
        "type": "Point",
        "coordinates": [
          13.21727,
          -12.36565
        ]
      },
      "properties": {
        "label": "Wild leek",
        "level": 4,
        "pos": "2534.13,-3550.38",
        "weight": "0.0"
      }
    },
    {
      "type": "Feature",
      "id": "729",
      "geometry": {
        "type": "Point",
        "coordinates": [
          10.656954,
          -6.254218
        ]
      },
      "properties": {
        "label": "Prunus (Cherry, Plum)",
        "level": 3,
        "pos": "1804.70,415.10",
        "weight": "0.0"
      }
    },
    {
      "type": "Feature",
      "id": "733",
      "geometry": {
        "type": "Point",
        "coordinates": [
          10.043051,
          -11.394583
        ]
      },
      "properties": {
        "label": "Hard wheat",
        "level": 3,
        "pos": "1629.80,-2915.29",
        "weight": "0.0"
      }
    },
    {
      "type": "Feature",
      "id": "735",
      "geometry": {
        "type": "Point",
        "coordinates": [
          9.992718,
          -6.323129
        ]
      },
      "properties": {
        "label": "Corn salad",
        "level": 3,
        "pos": "1615.46,370.73",
        "weight": "0.0"
      }
    },
    {
      "type": "Feature",
      "id": "737",
      "geometry": {
        "type": "Point",
        "coordinates": [
          9.876852,
          -10.4911
        ]
      },
      "properties": {
        "label": "Oyster mushroom",
        "level": 4,
        "pos": "1582.45,-2326.35",
        "weight": "0.0"
      }
    },
    {
      "type": "Feature",
      "id": "740",
      "geometry": {
        "type": "Point",
        "coordinates": [
          25.713757,
          0.526098
        ]
      },
      "properties": {
        "label": "Butternut",
        "level": 4,
        "pos": "6094.36,4762.45",
        "weight": "0.0"
      }
    },
    {
      "type": "Feature",
      "id": "742",
      "geometry": {
        "type": "Point",
        "coordinates": [
          10.421116,
          -6.26537
        ]
      },
      "properties": {
        "label": "Brazil nut",
        "level": 3,
        "pos": "1737.51,407.92",
        "weight": "0.0"
      }
    },
    {
      "type": "Feature",
      "id": "748",
      "geometry": {
        "type": "Point",
        "coordinates": [
          26.787227,
          -10.317517
        ]
      },
      "properties": {
        "label": "Garden onion",
        "level": 4,
        "pos": "6400.19,-2213.40",
        "weight": "0.0"
      }
    },
    {
      "type": "Feature",
      "id": "749",
      "geometry": {
        "type": "Point",
        "coordinates": [
          3.511532,
          -11.060107
        ]
      },
      "properties": {
        "label": "Sacred lotus",
        "level": 3,
        "pos": "-231.02,-2697.05",
        "weight": "0.0"
      }
    },
    {
      "type": "Feature",
      "id": "750",
      "geometry": {
        "type": "Point",
        "coordinates": [
          8.920652,
          -2.855859
        ]
      },
      "properties": {
        "label": "Adzuki bean",
        "level": 4,
        "pos": "1310.03,2597.25",
        "weight": "0.0"
      }
    },
    {
      "type": "Feature",
      "id": "751",
      "geometry": {
        "type": "Point",
        "coordinates": [
          10.466044,
          -6.310099
        ]
      },
      "properties": {
        "label": "Japanese pumpkin",
        "level": 3,
        "pos": "1750.31,379.12",
        "weight": "0.0"
      }
    },
    {
      "type": "Feature",
      "id": "752",
      "geometry": {
        "type": "Point",
        "coordinates": [
          17.676753,
          -7.387209
        ]
      },
      "properties": {
        "label": "Common grape",
        "level": 3,
        "pos": "3804.63,-315.19",
        "weight": "0.0"
      }
    },
    {
      "type": "Feature",
      "id": "753",
      "geometry": {
        "type": "Point",
        "coordinates": [
          9.995526,
          -6.680474
        ]
      },
      "properties": {
        "label": "Cashew nut",
        "level": 3,
        "pos": "1616.26,140.55",
        "weight": "0.0"
      }
    },
    {
      "type": "Feature",
      "id": "755",
      "geometry": {
        "type": "Point",
        "coordinates": [
          17.389774,
          -5.931192
        ]
      },
      "properties": {
        "label": "Okra",
        "level": 3,
        "pos": "3722.87,623.01",
        "weight": "0.0"
      }
    },
    {
      "type": "Feature",
      "id": "759",
      "geometry": {
        "type": "Point",
        "coordinates": [
          18.273633,
          -5.646602
        ]
      },
      "properties": {
        "label": "Persian lime",
        "level": 3,
        "pos": "3974.68,806.08",
        "weight": "0.0"
      }
    },
    {
      "type": "Feature",
      "id": "762",
      "geometry": {
        "type": "Point",
        "coordinates": [
          15.127178,
          0.678606
        ]
      },
      "properties": {
        "label": "Horseradish tree",
        "level": 4,
        "pos": "3078.26,4860.06",
        "weight": "0.0"
      }
    },
    {
      "type": "Feature",
      "id": "763",
      "geometry": {
        "type": "Point",
        "coordinates": [
          17.079032,
          0.489005
        ]
      },
      "properties": {
        "label": "Prairie turnip",
        "level": 4,
        "pos": "3634.34,4738.71",
        "weight": "0.0"
      }
    },
    {
      "type": "Feature",
      "id": "770",
      "geometry": {
        "type": "Point",
        "coordinates": [
          10.720556,
          -6.285654
        ]
      },
      "properties": {
        "label": "Breadfruit",
        "level": 3,
        "pos": "1822.82,394.86",
        "weight": "0.0"
      }
    },
    {
      "type": "Feature",
      "id": "771",
      "geometry": {
        "type": "Point",
        "coordinates": [
          7.614116,
          -3.118207
        ]
      },
      "properties": {
        "label": "Vaccinium (Blueberry, Cranberry, Huckleberry)",
        "level": 4,
        "pos": "937.80,2429.12",
        "weight": "0.0"
      }
    },
    {
      "type": "Feature",
      "id": "774",
      "geometry": {
        "type": "Point",
        "coordinates": [
          9.519672,
          -2.823149
        ]
      },
      "properties": {
        "label": "Jicama",
        "level": 4,
        "pos": "1480.69,2618.21",
        "weight": "0.0"
      }
    },
    {
      "type": "Feature",
      "id": "779",
      "geometry": {
        "type": "Point",
        "coordinates": [
          2.671022,
          -7.689249
        ]
      },
      "properties": {
        "label": "Gram bean",
        "level": 4,
        "pos": "-470.48,-510.18",
        "weight": "0.0"
      }
    },
    {
      "type": "Feature",
      "id": "781",
      "geometry": {
        "type": "Point",
        "coordinates": [
          13.285856,
          -9.935236
        ]
      },
      "properties": {
        "label": "Cabbage",
        "level": 3,
        "pos": "2553.67,-1964.87",
        "weight": "0.0"
      }
    },
    {
      "type": "Feature",
      "id": "785",
      "geometry": {
        "type": "Point",
        "coordinates": [
          10.138735,
          -2.850631
        ]
      },
      "properties": {
        "label": "Arrowroot",
        "level": 4,
        "pos": "1657.06,2600.60",
        "weight": "0.0"
      }
    },
    {
      "type": "Feature",
      "id": "79",
      "geometry": {
        "type": "Point",
        "coordinates": [
          7.236367,
          -11.671549
        ]
      },
      "properties": {
        "label": "Pecan nut",
        "level": 3,
        "pos": "830.18,-3096.20",
        "weight": "0.0"
      }
    },
    {
      "type": "Feature",
      "id": "794",
      "geometry": {
        "type": "Point",
        "coordinates": [
          23.979385,
          -8.203113
        ]
      },
      "properties": {
        "label": "Peanut",
        "level": 3,
        "pos": "5600.24,-842.24",
        "weight": "0.0"
      }
    },
    {
      "type": "Feature",
      "id": "795",
      "geometry": {
        "type": "Point",
        "coordinates": [
          6.693683,
          -5.981715
        ]
      },
      "properties": {
        "label": "Sweet orange",
        "level": 4,
        "pos": "675.57,590.50",
        "weight": "0.0"
      }
    },
    {
      "type": "Feature",
      "id": "799",
      "geometry": {
        "type": "Point",
        "coordinates": [
          10.077906,
          -9.349658
        ]
      },
      "properties": {
        "label": "Green zucchini",
        "level": 3,
        "pos": "1639.73,-1584.73",
        "weight": "0.0"
      }
    },
    {
      "type": "Feature",
      "id": "800",
      "geometry": {
        "type": "Point",
        "coordinates": [
          18.654435,
          -6.19353
        ]
      },
      "properties": {
        "label": "Chinese chestnut",
        "level": 3,
        "pos": "4083.17,454.17",
        "weight": "0.0"
      }
    },
    {
      "type": "Feature",
      "id": "801",
      "geometry": {
        "type": "Point",
        "coordinates": [
          10.468782,
          -6.230826
        ]
      },
      "properties": {
        "label": "Butternut squash",
        "level": 3,
        "pos": "1751.09,430.16",
        "weight": "0.0"
      }
    },
    {
      "type": "Feature",
      "id": "803",
      "geometry": {
        "type": "Point",
        "coordinates": [
          10.58872,
          -6.297535
        ]
      },
      "properties": {
        "label": "Date",
        "level": 3,
        "pos": "1785.26,387.21",
        "weight": "0.0"
      }
    },
    {
      "type": "Feature",
      "id": "804",
      "geometry": {
        "type": "Point",
        "coordinates": [
          10.986405,
          -5.957021
        ]
      },
      "properties": {
        "label": "Grape",
        "level": 3,
        "pos": "1898.56,606.39",
        "weight": "0.0"
      }
    },
    {
      "type": "Feature",
      "id": "807",
      "geometry": {
        "type": "Point",
        "coordinates": [
          17.946639,
          -2.815456
        ]
      },
      "properties": {
        "label": "Phyllo dough",
        "level": 3,
        "pos": "3881.52,2623.14",
        "weight": "0.0"
      }
    },
    {
      "type": "Feature",
      "id": "809",
      "geometry": {
        "type": "Point",
        "coordinates": [
          10.706411,
          -6.206703
        ]
      },
      "properties": {
        "label": "Yellow zucchini",
        "level": 3,
        "pos": "1818.79,445.69",
        "weight": "0.0"
      }
    },
    {
      "type": "Feature",
      "id": "813",
      "geometry": {
        "type": "Point",
        "coordinates": [
          15.180004,
          -4.649739
        ]
      },
      "properties": {
        "label": "Steller sea lion",
        "level": 3,
        "pos": "3093.31,1446.66",
        "weight": "0.0"
      }
    },
    {
      "type": "Feature",
      "id": "814",
      "geometry": {
        "type": "Point",
        "coordinates": [
          4.181525,
          -10.691826
        ]
      },
      "properties": {
        "label": "Pistachio",
        "level": 3,
        "pos": "-40.14,-2457.04",
        "weight": "0.0"
      }
    },
    {
      "type": "Feature",
      "id": "816",
      "geometry": {
        "type": "Point",
        "coordinates": [
          9.20728,
          -6.876921
        ]
      },
      "properties": {
        "label": "Napa cabbage",
        "level": 3,
        "pos": "1391.69,13.94",
        "weight": "0.0"
      }
    },
    {
      "type": "Feature",
      "id": "818",
      "geometry": {
        "type": "Point",
        "coordinates": [
          10.789458,
          -6.153312
        ]
      },
      "properties": {
        "label": "Cottonseed",
        "level": 3,
        "pos": "1842.45,480.06",
        "weight": "0.0"
      }
    },
    {
      "type": "Feature",
      "id": "82",
      "geometry": {
        "type": "Point",
        "coordinates": [
          4.989286,
          -9.301382
        ]
      },
      "properties": {
        "label": "Common wheat",
        "level": 3,
        "pos": "189.99,-1553.42",
        "weight": "0.0"
      }
    },
    {
      "type": "Feature",
      "id": "821",
      "geometry": {
        "type": "Point",
        "coordinates": [
          11.240215,
          -5.968739
        ]
      },
      "properties": {
        "label": "Sweet basil",
        "level": 3,
        "pos": "1970.87,598.85",
        "weight": "0.0"
      }
    },
    {
      "type": "Feature",
      "id": "822",
      "geometry": {
        "type": "Point",
        "coordinates": [
          9.417987,
          -6.950429
        ]
      },
      "properties": {
        "label": "Turnip",
        "level": 3,
        "pos": "1451.72,-33.45",
        "weight": "0.0"
      }
    },
    {
      "type": "Feature",
      "id": "824",
      "geometry": {
        "type": "Point",
        "coordinates": [
          10.208865,
          -6.364189
        ]
      },
      "properties": {
        "label": "Guava",
        "level": 3,
        "pos": "1677.04,344.29",
        "weight": "0.0"
      }
    },
    {
      "type": "Feature",
      "id": "825",
      "geometry": {
        "type": "Point",
        "coordinates": [
          15.261893,
          -10.587755
        ]
      },
      "properties": {
        "label": "Caraway",
        "level": 4,
        "pos": "3116.64,-2389.27",
        "weight": "0.0"
      }
    },
    {
      "type": "Feature",
      "id": "826",
      "geometry": {
        "type": "Point",
        "coordinates": [
          10.500302,
          -6.294134
        ]
      },
      "properties": {
        "label": "Italian sweet red pepper",
        "level": 3,
        "pos": "1760.07,389.40",
        "weight": "0.0"
      }
    },
    {
      "type": "Feature",
      "id": "828",
      "geometry": {
        "type": "Point",
        "coordinates": [
          10.587947,
          -6.233171
        ]
      },
      "properties": {
        "label": "Celery leaves",
        "level": 3,
        "pos": "1785.04,428.65",
        "weight": "0.0"
      }
    },
    {
      "type": "Feature",
      "id": "830",
      "geometry": {
        "type": "Point",
        "coordinates": [
          19.393014,
          -6.497223
        ]
      },
      "properties": {
        "label": "Almond",
        "level": 3,
        "pos": "4293.59,258.61",
        "weight": "0.0"
      }
    },
    {
      "type": "Feature",
      "id": "831",
      "geometry": {
        "type": "Point",
        "coordinates": [
          15.9507,
          -3.708254
        ]
      },
      "properties": {
        "label": "Cucurbita (Gourd)",
        "level": 3,
        "pos": "3312.88,2050.82",
        "weight": "0.0"
      }
    },
    {
      "type": "Feature",
      "id": "836",
      "geometry": {
        "type": "Point",
        "coordinates": [
          19.637101,
          -12.358949
        ]
      },
      "properties": {
        "label": "Walnut",
        "level": 4,
        "pos": "4363.13,-3545.99",
        "weight": "0.0"
      }
    },
    {
      "type": "Feature",
      "id": "844",
      "geometry": {
        "type": "Point",
        "coordinates": [
          20.083892,
          -0.176134
        ]
      },
      "properties": {
        "label": "Green bean",
        "level": 4,
        "pos": "4490.42,4313.02",
        "weight": "0.0"
      }
    },
    {
      "type": "Feature",
      "id": "849",
      "geometry": {
        "type": "Point",
        "coordinates": [
          7.200074,
          -10.510166
        ]
      },
      "properties": {
        "label": "Apple",
        "level": 4,
        "pos": "819.84,-2338.76",
        "weight": "0.0"
      }
    },
    {
      "type": "Feature",
      "id": "85",
      "geometry": {
        "type": "Point",
        "coordinates": [
          6.9622,
          -5.71629
        ]
      },
      "properties": {
        "label": "Wild celery",
        "level": 4,
        "pos": "752.07,761.26",
        "weight": "0.0"
      }
    },
    {
      "type": "Feature",
      "id": "855",
      "geometry": {
        "type": "Point",
        "coordinates": [
          26.703899,
          -3.918772
        ]
      },
      "properties": {
        "label": "Amaranth",
        "level": 4,
        "pos": "6376.45,1915.79",
        "weight": "0.0"
      }
    },
    {
      "type": "Feature",
      "id": "857",
      "geometry": {
        "type": "Point",
        "coordinates": [
          17.334175,
          -6.142934
        ]
      },
      "properties": {
        "label": "Dill",
        "level": 3,
        "pos": "3707.03,486.74",
        "weight": "0.0"
      }
    },
    {
      "type": "Feature",
      "id": "88",
      "geometry": {
        "type": "Point",
        "coordinates": [
          31.372931,
          -11.683347
        ]
      },
      "properties": {
        "label": "Mountain yam",
        "level": 3,
        "pos": "7706.65,-3103.91",
        "weight": "0.0"
      }
    },
    {
      "type": "Feature",
      "id": "90",
      "geometry": {
        "type": "Point",
        "coordinates": [
          16.621606,
          -8.790996
        ]
      },
      "properties": {
        "label": "Hickory nut",
        "level": 3,
        "pos": "3504.02,-1222.66",
        "weight": "0.0"
      }
    },
    {
      "type": "Feature",
      "id": "91",
      "geometry": {
        "type": "Point",
        "coordinates": [
          12.547909,
          -10.078754
        ]
      },
      "properties": {
        "label": "Chickpea",
        "level": 3,
        "pos": "2343.43,-2058.14",
        "weight": "0.0"
      }
    },
    {
      "type": "Feature",
      "id": "93",
      "geometry": {
        "type": "Point",
        "coordinates": [
          28.426337,
          -9.575235
        ]
      },
      "properties": {
        "label": "Carob",
        "level": 4,
        "pos": "6867.17,-1731.09",
        "weight": "0.0"
      }
    },
    {
      "type": "Feature",
      "id": "94",
      "geometry": {
        "type": "Point",
        "coordinates": [
          8.597519,
          -2.966904
        ]
      },
      "properties": {
        "label": "Agave",
        "level": 4,
        "pos": "1217.97,2526.09",
        "weight": "0.0"
      }
    },
    {
      "type": "Feature",
      "id": "95",
      "geometry": {
        "type": "Point",
        "coordinates": [
          16.865482,
          -5.5021
        ]
      },
      "properties": {
        "label": "Orange bell pepper",
        "level": 3,
        "pos": "3573.50,899.00",
        "weight": "0.0"
      }
    },
    {
      "type": "Feature",
      "id": "98",
      "geometry": {
        "type": "Point",
        "coordinates": [
          9.884083,
          -6.38318
        ]
      },
      "properties": {
        "label": "Pepper (Spice)",
        "level": 3,
        "pos": "1584.51,332.06",
        "weight": "0.0"
      }
    },
    {
      "type": "Feature",
      "id": "8",
      "geometry": {
        "type": "Point",
        "coordinates": [
          -27.073961,
          -0.052211
        ]
      },
      "properties": {
        "height": "0.23",
        "label": "Pyridoxine",
        "level": 1,
        "pos": "-8944.78,4392.33",
        "weight": "14450.0",
        "width": "0.85"
      }
    },
    {
      "type": "Feature",
      "id": "10",
      "geometry": {
        "type": "Point",
        "coordinates": [
          54.772881,
          -2.244652
        ]
      },
      "properties": {
        "height": "0.23",
        "label": "Vitamin E",
        "level": 1,
        "pos": "14373.26,2988.81",
        "weight": "11921.0",
        "width": "0.80"
      }
    },
    {
      "type": "Feature",
      "id": "13",
      "geometry": {
        "type": "Point",
        "coordinates": [
          5.308312,
          5.349162
        ]
      },
      "properties": {
        "height": "0.23",
        "label": "ADO",
        "level": 1,
        "pos": "280.88,7854.17",
        "weight": "68701.0",
        "width": "0.42"
      }
    },
    {
      "type": "Feature",
      "id": "199",
      "geometry": {
        "type": "Point",
        "coordinates": [
          46.336682,
          -5.024714
        ]
      },
      "properties": {
        "label": "Rape",
        "level": 5,
        "pos": "11969.80,1205.82",
        "weight": "0.0"
      }
    },
    {
      "type": "Feature",
      "id": "257",
      "geometry": {
        "type": "Point",
        "coordinates": [
          43.422662,
          -1.579287
        ]
      },
      "properties": {
        "label": "Cocoa butter",
        "level": 5,
        "pos": "11139.60,3414.88",
        "weight": "0.0"
      }
    },
    {
      "type": "Feature",
      "id": "346",
      "geometry": {
        "type": "Point",
        "coordinates": [
          52.670167,
          1.241169
        ]
      },
      "properties": {
        "label": "Dripping",
        "level": 5,
        "pos": "13774.20,5220.15",
        "weight": "0.0"
      }
    },
    {
      "type": "Feature",
      "id": "365",
      "geometry": {
        "type": "Point",
        "coordinates": [
          57.876934,
          1.320884
        ]
      },
      "properties": {
        "label": "Cooking oil",
        "level": 5,
        "pos": "15257.60,5271.18",
        "weight": "0.0"
      }
    },
    {
      "type": "Feature",
      "id": "464",
      "geometry": {
        "type": "Point",
        "coordinates": [
          60.626931,
          -5.164333
        ]
      },
      "properties": {
        "label": "Cupua\u00e7u",
        "level": 5,
        "pos": "16041.07,1116.11",
        "weight": "0.0"
      }
    },
    {
      "type": "Feature",
      "id": "479",
      "geometry": {
        "type": "Point",
        "coordinates": [
          63.658011,
          0.5598
        ]
      },
      "properties": {
        "label": "Oil palm",
        "level": 5,
        "pos": "16904.62,4784.02",
        "weight": "0.0"
      }
    },
    {
      "type": "Feature",
      "id": "495",
      "geometry": {
        "type": "Point",
        "coordinates": [
          63.838075,
          -2.524442
        ]
      },
      "properties": {
        "label": "Thistle",
        "level": 5,
        "pos": "16955.92,2809.59",
        "weight": "0.0"
      }
    },
    {
      "type": "Feature",
      "id": "511",
      "geometry": {
        "type": "Point",
        "coordinates": [
          58.290976,
          -6.833948
        ]
      },
      "properties": {
        "label": "Ucuhuba",
        "level": 5,
        "pos": "15375.56,41.64",
        "weight": "0.0"
      }
    },
    {
      "type": "Feature",
      "id": "626",
      "geometry": {
        "type": "Point",
        "coordinates": [
          53.706852,
          -6.073455
        ]
      },
      "properties": {
        "label": "Roselle",
        "level": 5,
        "pos": "14069.55,531.46",
        "weight": "0.0"
      }
    },
    {
      "type": "Feature",
      "id": "656",
      "geometry": {
        "type": "Point",
        "coordinates": [
          46.839212,
          -3.957337
        ]
      },
      "properties": {
        "label": "True seal",
        "level": 5,
        "pos": "12112.97,1891.05",
        "weight": "0.0"
      }
    },
    {
      "type": "Feature",
      "id": "658",
      "geometry": {
        "type": "Point",
        "coordinates": [
          66.53465,
          -0.693574
        ]
      },
      "properties": {
        "label": "Pikeperch",
        "level": 5,
        "pos": "17724.17,3981.85",
        "weight": "0.0"
      }
    },
    {
      "type": "Feature",
      "id": "743",
      "geometry": {
        "type": "Point",
        "coordinates": [
          50.812242,
          -6.733888
        ]
      },
      "properties": {
        "label": "Babassu palm",
        "level": 5,
        "pos": "13244.88,106.13",
        "weight": "0.0"
      }
    },
    {
      "type": "Feature",
      "id": "757",
      "geometry": {
        "type": "Point",
        "coordinates": [
          46.751602,
          0.068524
        ]
      },
      "properties": {
        "label": "Canola",
        "level": 5,
        "pos": "12088.01,4469.60",
        "weight": "0.0"
      }
    },
    {
      "type": "Feature",
      "id": "83",
      "geometry": {
        "type": "Point",
        "coordinates": [
          64.743485,
          -4.449574
        ]
      },
      "properties": {
        "label": "Carp bream",
        "level": 5,
        "pos": "17213.87,1575.17",
        "weight": "0.0"
      }
    },
    {
      "type": "Feature",
      "id": "6",
      "geometry": {
        "type": "Point",
        "coordinates": [
          3.416094,
          16.102965
        ]
      },
      "properties": {
        "height": "0.23",
        "label": "QUERCETIN",
        "level": 1,
        "pos": "-258.21,14869.99",
        "weight": "17808.0",
        "width": "1.10"
      }
    },
    {
      "type": "Feature",
      "id": "5",
      "geometry": {
        "type": "Point",
        "coordinates": [
          28.582884,
          8.937337
        ]
      },
      "properties": {
        "height": "0.23",
        "label": "Vitamin A",
        "level": 1,
        "pos": "6911.77,10168.94",
        "weight": "18645.0",
        "width": "0.83"
      }
    },
    {
      "type": "Feature",
      "id": "19",
      "geometry": {
        "type": "Point",
        "coordinates": [
          41.748381,
          3.979223
        ]
      },
      "properties": {
        "height": "0.23",
        "label": "LUTEOLIN",
        "level": 1,
        "pos": "10662.60,6974.48",
        "weight": "2571.0",
        "width": "0.96"
      }
    },
    {
      "type": "Feature",
      "id": "14",
      "geometry": {
        "type": "Point",
        "coordinates": [
          51.117017,
          2.158543
        ]
      },
      "properties": {
        "height": "0.23",
        "label": "APIGENIN",
        "level": 1,
        "pos": "13331.71,5807.53",
        "weight": "4280.0",
        "width": "0.92"
      }
    },
    {
      "type": "Feature",
      "id": "23",
      "geometry": {
        "type": "Point",
        "coordinates": [
          -2.295695,
          5.82009
        ]
      },
      "properties": {
        "label": "HYPEROSIDE",
        "level": 2,
        "pos": "-1885.49,8157.00",
        "weight": "1715.0"
      }
    },
    {
      "type": "Feature",
      "id": "48",
      "geometry": {
        "type": "Point",
        "coordinates": [
          24.099813,
          2.110482
        ]
      },
      "properties": {
        "label": "ISOQUERCETIN",
        "level": 2,
        "pos": "5634.55,5776.75",
        "weight": "858.0"
      }
    },
    {
      "type": "Feature",
      "id": "101",
      "geometry": {
        "type": "Point",
        "coordinates": [
          22.887838,
          -19.851756
        ]
      },
      "properties": {
        "label": "Blue crab",
        "level": 2,
        "pos": "5289.26,-8541.40",
        "weight": "0.0"
      }
    },
    {
      "type": "Feature",
      "id": "2",
      "geometry": {
        "type": "Point",
        "coordinates": [
          10.23161,
          -18.356424
        ]
      },
      "properties": {
        "height": "0.23",
        "label": "Cyanocobalamin",
        "level": 1,
        "pos": "1683.52,-7528.58",
        "weight": "180933.0",
        "width": "1.32"
      }
    },
    {
      "type": "Feature",
      "id": "200",
      "geometry": {
        "type": "Point",
        "coordinates": [
          30.580613,
          -23.754104
        ]
      },
      "properties": {
        "label": "Potato bread",
        "level": 3,
        "pos": "7480.92,-11231.99",
        "weight": "0.0"
      }
    },
    {
      "type": "Feature",
      "id": "203",
      "geometry": {
        "type": "Point",
        "coordinates": [
          31.800487,
          -22.556625
        ]
      },
      "properties": {
        "label": "Topping",
        "level": 3,
        "pos": "7828.46,-10398.44",
        "weight": "0.0"
      }
    },
    {
      "type": "Feature",
      "id": "204",
      "geometry": {
        "type": "Point",
        "coordinates": [
          6.032816,
          -15.894158
        ]
      },
      "properties": {
        "label": "Potato chip",
        "level": 2,
        "pos": "487.29,-5879.48",
        "weight": "0.0"
      }
    },
    {
      "type": "Feature",
      "id": "206",
      "geometry": {
        "type": "Point",
        "coordinates": [
          -1.303412,
          -17.417137
        ]
      },
      "properties": {
        "label": "Chili",
        "level": 3,
        "pos": "-1602.79,-6896.90",
        "weight": "0.0"
      }
    },
    {
      "type": "Feature",
      "id": "209",
      "geometry": {
        "type": "Point",
        "coordinates": [
          15.902226,
          -28.740926
        ]
      },
      "properties": {
        "label": "Cheese",
        "level": 3,
        "pos": "3299.07,-14792.11",
        "weight": "0.0"
      }
    },
    {
      "type": "Feature",
      "id": "210",
      "geometry": {
        "type": "Point",
        "coordinates": [
          10.682964,
          -16.037021
        ]
      },
      "properties": {
        "label": "Baked beans",
        "level": 3,
        "pos": "1812.11,-5974.58",
        "weight": "0.0"
      }
    },
    {
      "type": "Feature",
      "id": "211",
      "geometry": {
        "type": "Point",
        "coordinates": [
          6.179254,
          -23.290938
        ]
      },
      "properties": {
        "label": "Processed cheese",
        "level": 3,
        "pos": "529.01,-10908.70",
        "weight": "0.0"
      }
    },