{
  "type": "FeatureCollection",
  "features": [
    {
      "type": "Feature",
      "id": "1",
      "geometry": {
        "type": "Point",
        "coordinates": [
          6.583813,
          -18.883936
        ]
      },
      "properties": {
        "height": "0.23",
        "label": "Folic Acid",
        "level": 1,
        "pos": "11029.88,-14411.64",
        "weight": "265518.0",
        "width": "0.83"
      }
    },
    {
      "type": "Feature",
      "id": "100",
      "geometry": {
        "type": "Point",
        "coordinates": [
          2.145691,
          -16.202571
        ]
      },
      "properties": {
        "label": "Hickory nut",
        "level": 4,
        "pos": "8832.29,-12699.91",
        "weight": "0.0"
      }
    },
    {
      "type": "Feature",
      "id": "101",
      "geometry": {
        "type": "Point",
        "coordinates": [
          1.235222,
          -20.124673
        ]
      },
      "properties": {
        "label": "Chickpea",
        "level": 5,
        "pos": "8381.46,-15212.77",
        "weight": "0.0"
      }
    },
    {
      "type": "Feature",
      "id": "102",
      "geometry": {
        "type": "Point",
        "coordinates": [
          3.265829,
          -22.347246
        ]
      },
      "properties": {
        "label": "Striped bass",
        "level": 4,
        "pos": "9386.94,-16664.14",
        "weight": "0.0"
      }
    },
    {
      "type": "Feature",
      "id": "103",
      "geometry": {
        "type": "Point",
        "coordinates": [
          18.72305,
          -21.808286
        ]
      },
      "properties": {
        "label": "Carob",
        "level": 4,
        "pos": "17040.77,-16310.16",
        "weight": "0.0"
      }
    },
    {
      "type": "Feature",
      "id": "105",
      "geometry": {
        "type": "Point",
        "coordinates": [
          9.164907,
          -16.42764
        ]
      },
      "properties": {
        "label": "Orange bell pepper",
        "level": 3,
        "pos": "12307.94,-12842.64",
        "weight": "0.0"
      }
    },
    {
      "type": "Feature",
      "id": "106",
      "geometry": {
        "type": "Point",
        "coordinates": [
          16.781281,
          -20.632835
        ]
      },
      "properties": {
        "label": "Sheefish",
        "level": 4,
        "pos": "16079.28,-15542.70",
        "weight": "0.0"
      }
    },
    {
      "type": "Feature",
      "id": "107",
      "geometry": {
        "type": "Point",
        "coordinates": [
          20.2372,
          -21.275788
        ]
      },
      "properties": {
        "label": "Cuttlefish",
        "level": 4,
        "pos": "17790.52,-15961.73",
        "weight": "0.0"
      }
    },
    {
      "type": "Feature",
      "id": "109",
      "geometry": {
        "type": "Point",
        "coordinates": [
          14.053609,
          -24.813715
        ]
      },
      "properties": {
        "label": "Bivalvia (Clam, Mussel, Oyster)",
        "level": 4,
        "pos": "14728.64,-18302.23",
        "weight": "0.0"
      }
    },
    {
      "type": "Feature",
      "id": "111",
      "geometry": {
        "type": "Point",
        "coordinates": [
          7.38133,
          -14.210328
        ]
      },
      "properties": {
        "label": "Blue crab",
        "level": 4,
        "pos": "11424.78,-11443.32",
        "weight": "0.0"
      }
    },
    {
      "type": "Feature",
      "id": "112",
      "geometry": {
        "type": "Point",
        "coordinates": [
          2.758803,
          -15.761878
        ]
      },
      "properties": {
        "label": "Common salsify",
        "level": 4,
        "pos": "9135.88,-12420.91",
        "weight": "0.0"
      }
    },
    {
      "type": "Feature",
      "id": "113",
      "geometry": {
        "type": "Point",
        "coordinates": [
          6.066851,
          -11.227652
        ]
      },
      "properties": {
        "label": "Thunnus (Common tuna)",
        "level": 3,
        "pos": "10773.90,-9582.10",
        "weight": "0.0"
      }
    },
    {
      "type": "Feature",
      "id": "114",
      "geometry": {
        "type": "Point",
        "coordinates": [
          6.710762,
          -16.183826
        ]
      },
      "properties": {
        "label": "Sorrel",
        "level": 3,
        "pos": "11092.74,-12688.03",
        "weight": "0.0"
      }
    },
    {
      "type": "Feature",
      "id": "116",
      "geometry": {
        "type": "Point",
        "coordinates": [
          1.297949,
          -22.783307
        ]
      },
      "properties": {
        "label": "Deer",
        "level": 4,
        "pos": "8412.52,-16951.54",
        "weight": "0.0"
      }
    },
    {
      "type": "Feature",
      "id": "118",
      "geometry": {
        "type": "Point",
        "coordinates": [
          1.124389,
          -18.646456
        ]
      },
      "properties": {
        "label": "Giant butterbur",
        "level": 4,
        "pos": "8326.58,-14258.99",
        "weight": "0.0"
      }
    },
    {
      "type": "Feature",
      "id": "120",
      "geometry": {
        "type": "Point",
        "coordinates": [
          13.470265,
          -26.057144
        ]
      },
      "properties": {
        "label": "Cowpea",
        "level": 4,
        "pos": "14439.79,-19140.26",
        "weight": "0.0"
      }
    },
    {
      "type": "Feature",
      "id": "124",
      "geometry": {
        "type": "Point",
        "coordinates": [
          7.285987,
          -14.89568
        ]
      },
      "properties": {
        "label": "Chinese mustard",
        "level": 3,
        "pos": "11377.57,-11874.27",
        "weight": "0.0"
      }
    },
    {
      "type": "Feature",
      "id": "128",
      "geometry": {
        "type": "Point",
        "coordinates": [
          18.88532,
          -22.565585
        ]
      },
      "properties": {
        "label": "Swamp cabbage",
        "level": 4,
        "pos": "17121.12,-16807.93",
        "weight": "0.0"
      }
    },
    {
      "type": "Feature",
      "id": "129",
      "geometry": {
        "type": "Point",
        "coordinates": [
          14.412259,
          -18.973474
        ]
      },
      "properties": {
        "label": "Rainbow trout",
        "level": 3,
        "pos": "14906.23,-14469.25",
        "weight": "0.0"
      }
    },
    {
      "type": "Feature",
      "id": "130",
      "geometry": {
        "type": "Point",
        "coordinates": [
          22.239736,
          -17.493899
        ]
      },
      "properties": {
        "label": "Nutmeg",
        "level": 4,
        "pos": "18782.10,-13521.11",
        "weight": "0.0"
      }
    },
    {
      "type": "Feature",
      "id": "134",
      "geometry": {
        "type": "Point",
        "coordinates": [
          7.259653,
          -16.174247
        ]
      },
      "properties": {
        "label": "Rocket salad (ssp.)",
        "level": 3,
        "pos": "11364.53,-12681.96",
        "weight": "0.0"
      }
    },
    {
      "type": "Feature",
      "id": "138",
      "geometry": {
        "type": "Point",
        "coordinates": [
          16.111279,
          -15.050185
        ]
      },
      "properties": {
        "label": "Sturgeon",
        "level": 5,
        "pos": "15747.52,-11971.61",
        "weight": "0.0"
      }
    },
    {
      "type": "Feature",
      "id": "140",
      "geometry": {
        "type": "Point",
        "coordinates": [
          5.34434,
          -20.118579
        ]
      },
      "properties": {
        "label": "Bilberry",
        "level": 3,
        "pos": "10416.14,-15208.82",
        "weight": "0.0"
      }
    },
    {
      "type": "Feature",
      "id": "141",
      "geometry": {
        "type": "Point",
        "coordinates": [
          13.549916,
          -27.764848
        ]
      },
      "properties": {
        "label": "Perciformes (Perch-like fishes)",
        "level": 4,
        "pos": "14479.23,-20305.89",
        "weight": "0.0"
      }
    },
    {
      "type": "Feature",
      "id": "147",
      "geometry": {
        "type": "Point",
        "coordinates": [
          4.161778,
          -19.342351
        ]
      },
      "properties": {
        "label": "Atlantic cod",
        "level": 3,
        "pos": "9830.58,-14706.92",
        "weight": "0.0"
      }
    },
    {
      "type": "Feature",
      "id": "148",
      "geometry": {
        "type": "Point",
        "coordinates": [
          1.023816,
          -19.569236
        ]
      },
      "properties": {
        "label": "Spearmint",
        "level": 4,
        "pos": "8276.78,-14853.37",
        "weight": "0.0"
      }
    },
    {
      "type": "Feature",
      "id": "150",
      "geometry": {
        "type": "Point",
        "coordinates": [
          17.245917,
          -17.247689
        ]
      },
      "properties": {
        "label": "Common hazelnut",
        "level": 4,
        "pos": "16309.35,-13364.10",
        "weight": "0.0"
      }
    },
    {
      "type": "Feature",
      "id": "152",
      "geometry": {
        "type": "Point",
        "coordinates": [
          1.467186,
          -16.33946
        ]
      },
      "properties": {
        "label": "White sucker",
        "level": 4,
        "pos": "8496.32,-12786.70",
        "weight": "0.0"
      }
    },
    {
      "type": "Feature",
      "id": "153",
      "geometry": {
        "type": "Point",
        "coordinates": [
          6.732229,
          -14.611381
        ]
      },
      "properties": {
        "label": "Savoy cabbage",
        "level": 4,
        "pos": "11103.37,-11695.34",
        "weight": "0.0"
      }
    },
    {
      "type": "Feature",
      "id": "156",
      "geometry": {
        "type": "Point",
        "coordinates": [
          4.713678,
          -15.699677
        ]
      },
      "properties": {
        "label": "Pigeon pea",
        "level": 3,
        "pos": "10103.86,-12381.58",
        "weight": "0.0"
      }
    },
    {
      "type": "Feature",
      "id": "157",
      "geometry": {
        "type": "Point",
        "coordinates": [
          4.830145,
          -19.060339
        ]
      },
      "properties": {
        "label": "Garland chrysanthemum",
        "level": 3,
        "pos": "10161.53,-14525.17",
        "weight": "0.0"
      }
    },
    {
      "type": "Feature",
      "id": "159",
      "geometry": {
        "type": "Point",
        "coordinates": [
          5.480659,
          -20.137215
        ]
      },
      "properties": {
        "label": "Alaska pollock",
        "level": 3,
        "pos": "10483.64,-15220.90",
        "weight": "0.0"
      }
    },
    {
      "type": "Feature",
      "id": "161",
      "geometry": {
        "type": "Point",
        "coordinates": [
          3.998216,
          -21.931109
        ]
      },
      "properties": {
        "label": "Walleye",
        "level": 4,
        "pos": "9749.59,-16390.71",
        "weight": "0.0"
      }
    },
    {
      "type": "Feature",
      "id": "163",
      "geometry": {
        "type": "Point",
        "coordinates": [
          16.805132,
          -22.423071
        ]
      },
      "properties": {
        "label": "Hyacinth bean",
        "level": 4,
        "pos": "16091.09,-16714.05",
        "weight": "0.0"
      }
    },
    {
      "type": "Feature",
      "id": "164",
      "geometry": {
        "type": "Point",
        "coordinates": [
          1.493824,
          -20.022263
        ]
      },
      "properties": {
        "label": "Taro",
        "level": 4,
        "pos": "8509.51,-15146.41",
        "weight": "0.0"
      }
    },
    {
      "type": "Feature",
      "id": "165",
      "geometry": {
        "type": "Point",
        "coordinates": [
          5.9396,
          -15.978034
        ]
      },
      "properties": {
        "label": "Snail",
        "level": 3,
        "pos": "10710.89,-12557.68",
        "weight": "0.0"
      }
    },
    {
      "type": "Feature",
      "id": "168",
      "geometry": {
        "type": "Point",
        "coordinates": [
          9.480804,
          -11.839
        ]
      },
      "properties": {
        "label": "Lime",
        "level": 4,
        "pos": "12464.36,-9961.85",
        "weight": "0.0"
      }
    },
    {
      "type": "Feature",
      "id": "171",
      "geometry": {
        "type": "Point",
        "coordinates": [
          4.779616,
          -19.783759
        ]
      },
      "properties": {
        "label": "Lemon grass",
        "level": 3,
        "pos": "10136.51,-14992.03",
        "weight": "0.0"
      }
    },
    {
      "type": "Feature",
      "id": "173",
      "geometry": {
        "type": "Point",
        "coordinates": [
          4.984054,
          -19.595166
        ]
      },
      "properties": {
        "label": "Salmonidae (Salmon, Trout)",
        "level": 3,
        "pos": "10237.74,-14870.12",
        "weight": "0.0"
      }
    },
    {
      "type": "Feature",
      "id": "175",
      "geometry": {
        "type": "Point",
        "coordinates": [
          7.678525,
          -15.507768
        ]
      },
      "properties": {
        "label": "Egg substitute",
        "level": 3,
        "pos": "11571.94,-12260.31",
        "weight": "0.0"
      }
    },
    {
      "type": "Feature",
      "id": "178",
      "geometry": {
        "type": "Point",
        "coordinates": [
          25.888622,
          -25.883328
        ]
      },
      "properties": {
        "label": "Mammee apple",
        "level": 3,
        "pos": "20588.89,-19022.59",
        "weight": "0.0"
      }
    },
    {
      "type": "Feature",
      "id": "182",
      "geometry": {
        "type": "Point",
        "coordinates": [
          9.942673,
          -17.821134
        ]
      },
      "properties": {
        "label": "Pate",
        "level": 3,
        "pos": "12693.06,-13730.12",
        "weight": "0.0"
      }
    },
    {
      "type": "Feature",
      "id": "183",
      "geometry": {
        "type": "Point",
        "coordinates": [
          6.350294,
          -20.486949
        ]
      },
      "properties": {
        "label": "Soy sauce",
        "level": 3,
        "pos": "10914.25,-15447.87",
        "weight": "0.0"
      }
    },
    {
      "type": "Feature",
      "id": "184",
      "geometry": {
        "type": "Point",
        "coordinates": [
          18.937101,
          -30.896149
        ]
      },
      "properties": {
        "label": "Margarine",
        "level": 3,
        "pos": "17146.76,-22492.34",
        "weight": "0.0"
      }
    },
    {
      "type": "Feature",
      "id": "187",
      "geometry": {
        "type": "Point",
        "coordinates": [
          9.173591,
          -15.112581
        ]
      },
      "properties": {
        "label": "White lupine",
        "level": 4,
        "pos": "12312.24,-12010.94",
        "weight": "0.0"
      }
    },
    {
      "type": "Feature",
      "id": "190",
      "geometry": {
        "type": "Point",
        "coordinates": [
          6.008325,
          -20.888165
        ]
      },
      "properties": {
        "label": "Focaccia",
        "level": 3,
        "pos": "10744.92,-15708.89",
        "weight": "0.0"
      }
    },
    {
      "type": "Feature",
      "id": "191",
      "geometry": {
        "type": "Point",
        "coordinates": [
          1.388626,
          -15.074809
        ]
      },
      "properties": {
        "label": "Winter squash",
        "level": 3,
        "pos": "8457.42,-11987.13",
        "weight": "0.0"
      }
    },
    {
      "type": "Feature",
      "id": "192",
      "geometry": {
        "type": "Point",
        "coordinates": [
          5.57893,
          -23.374714
        ]
      },
      "properties": {
        "label": "Catfish",
        "level": 4,
        "pos": "10532.30,-17342.80",
        "weight": "0.0"
      }
    },
    {
      "type": "Feature",
      "id": "197",
      "geometry": {
        "type": "Point",
        "coordinates": [
          18.381343,
          -19.939944
        ]
      },
      "properties": {
        "label": "Atlantic herring",
        "level": 4,
        "pos": "16871.57,-15093.10",
        "weight": "0.0"
      }
    },
    {
      "type": "Feature",
      "id": "198",
      "geometry": {
        "type": "Point",
        "coordinates": [
          1.274946,
          -18.700733
        ]
      },
      "properties": {
        "label": "Towel gourd",
        "level": 4,
        "pos": "8401.13,-14293.86",
        "weight": "0.0"
      }
    },
    {
      "type": "Feature",
      "id": "200",
      "geometry": {
        "type": "Point",
        "coordinates": [
          13.843819,
          -18.109185
        ]
      },
      "properties": {
        "label": "Trail mix",
        "level": 3,
        "pos": "14624.76,-13914.42",
        "weight": "0.0"
      }
    },
    {
      "type": "Feature",
      "id": "202",
      "geometry": {
        "type": "Point",
        "coordinates": [
          18.322514,
          -15.523014
        ]
      },
      "properties": {
        "label": "Black mulberry",
        "level": 4,
        "pos": "16842.44,-12269.94",
        "weight": "0.0"
      }
    },
    {
      "type": "Feature",
      "id": "204",
      "geometry": {
        "type": "Point",
        "coordinates": [
          2.174934,
          -14.536134
        ]
      },
      "properties": {
        "label": "Frozen yogurt",
        "level": 3,
        "pos": "8846.77,-11648.02",
        "weight": "0.0"
      }
    },
    {
      "type": "Feature",
      "id": "207",
      "geometry": {
        "type": "Point",
        "coordinates": [
          6.983884,
          -15.898534
        ]
      },
      "properties": {
        "label": "Pie filling",
        "level": 3,
        "pos": "11227.98,-12507.36",
        "weight": "0.0"
      }
    },
    {
      "type": "Feature",
      "id": "210",
      "geometry": {
        "type": "Point",
        "coordinates": [
          0.176538,
          -13.558611
        ]
      },
      "properties": {
        "label": "Potato bread",
        "level": 3,
        "pos": "7857.24,-11034.73",
        "weight": "0.0"
      }
    },
    {
      "type": "Feature",
      "id": "213",
      "geometry": {
        "type": "Point",
        "coordinates": [
          8.458189,
          -16.510063
        ]
      },
      "properties": {
        "label": "Topping",
        "level": 3,
        "pos": "11958.00,-12894.95",
        "weight": "0.0"
      }
    },
    {
      "type": "Feature",
      "id": "215",
      "geometry": {
        "type": "Point",
        "coordinates": [
          2.455691,
          -16.814392
        ]
      },
      "properties": {
        "label": "Tapioca pearl",
        "level": 3,
        "pos": "8985.79,-13088.29",
        "weight": "0.0"
      }
    },
    {
      "type": "Feature",
      "id": "217",
      "geometry": {
        "type": "Point",
        "coordinates": [
          4.995889,
          -15.622062
        ]
      },
      "properties": {
        "label": "Port wine",
        "level": 3,
        "pos": "10243.60,-12332.52",
        "weight": "0.0"
      }
    },
    {
      "type": "Feature",
      "id": "222",
      "geometry": {
        "type": "Point",
        "coordinates": [
          5.798656,
          -20.282832
        ]
      },
      "properties": {
        "label": "Mustard",
        "level": 3,
        "pos": "10641.10,-15315.34",
        "weight": "0.0"
      }
    },
    {
      "type": "Feature",
      "id": "223",
      "geometry": {
        "type": "Point",
        "coordinates": [
          6.676692,
          -21.942632
        ]
      },
      "properties": {
        "label": "Other vegetable product",
        "level": 3,
        "pos": "11075.87,-16398.27",
        "weight": "0.0"
      }
    },
    {
      "type": "Feature",
      "id": "228",
      "geometry": {
        "type": "Point",
        "coordinates": [
          9.245386,
          -17.126525
        ]
      },
      "properties": {
        "label": "Mixed nuts",
        "level": 3,
        "pos": "12347.79,-13286.91",
        "weight": "0.0"
      }
    },
    {
      "type": "Feature",
      "id": "229",
      "geometry": {
        "type": "Point",
        "coordinates": [
          8.917938,
          -16.383114
        ]
      },
      "properties": {
        "label": "Tofu",
        "level": 3,
        "pos": "12185.65,-12814.39",
        "weight": "0.0"
      }
    },
    {
      "type": "Feature",
      "id": "231",
      "geometry": {
        "type": "Point",
        "coordinates": [
          4.291049,
          -18.924149
        ]
      },
      "properties": {
        "label": "Margarine-like spread",
        "level": 3,
        "pos": "9894.59,-14437.51",
        "weight": "0.0"
      }
    },
    {
      "type": "Feature",
      "id": "235",
      "geometry": {
        "type": "Point",
        "coordinates": [
          9.610519,
          -17.367393
        ]
      },
      "properties": {
        "label": "Chives",
        "level": 3,
        "pos": "12528.59,-13440.41",
        "weight": "0.0"
      }
    },
    {
      "type": "Feature",
      "id": "240",
      "geometry": {
        "type": "Point",
        "coordinates": [
          4.174239,
          -20.095651
        ]
      },
      "properties": {
        "label": "Nougat",
        "level": 3,
        "pos": "9836.75,-15193.96",
        "weight": "0.0"
      }
    },
    {
      "type": "Feature",
      "id": "246",
      "geometry": {
        "type": "Point",
        "coordinates": [
          4.696936,
          -16.462246
        ]
      },
      "properties": {
        "label": "Gelatin dessert",
        "level": 3,
        "pos": "10095.57,-12864.60",
        "weight": "0.0"
      }
    },
    {
      "type": "Feature",
      "id": "248",
      "geometry": {
        "type": "Point",
        "coordinates": [
          4.410081,
          -22.999109
        ]
      },
      "properties": {
        "label": "Cichlidae (Tilapia)",
        "level": 4,
        "pos": "9953.53,-17094.11",
        "weight": "0.0"
      }
    },
    {
      "type": "Feature",
      "id": "251",
      "geometry": {
        "type": "Point",
        "coordinates": [
          5.185221,
          -13.951976
        ]
      },
      "properties": {
        "label": "Bulgur",
        "level": 3,
        "pos": "10337.35,-11281.21",
        "weight": "0.0"
      }
    },
    {
      "type": "Feature",
      "id": "258",
      "geometry": {
        "type": "Point",
        "coordinates": [
          10.146061,
          -17.347069
        ]
      },
      "properties": {
        "label": "Pie crust",
        "level": 3,
        "pos": "12793.77,-13427.45",
        "weight": "0.0"
      }
    },
    {
      "type": "Feature",
      "id": "259",
      "geometry": {
        "type": "Point",
        "coordinates": [
          8.012093,
          -21.810818
        ]
      },
      "properties": {
        "label": "Ymer",
        "level": 3,
        "pos": "11737.11,-16311.82",
        "weight": "0.0"
      }
    },
    {
      "type": "Feature",
      "id": "262",
      "geometry": {
        "type": "Point",
        "coordinates": [
          7.181375,
          -22.028028
        ]
      },
      "properties": {
        "label": "Cocoa powder",
        "level": 3,
        "pos": "11325.77,-16454.32",
        "weight": "0.0"
      }
    },
    {
      "type": "Feature",
      "id": "263",
      "geometry": {
        "type": "Point",
        "coordinates": [
          10.266324,
          -18.207948
        ]
      },
      "properties": {
        "label": "Cornbread",
        "level": 3,
        "pos": "12853.32,-13977.68",
        "weight": "0.0"
      }
    },
    {
      "type": "Feature",
      "id": "265",
      "geometry": {
        "type": "Point",
        "coordinates": [
          5.287127,
          -20.004
        ]
      },
      "properties": {
        "label": "Semolina",
        "level": 3,
        "pos": "10387.81,-15134.58",
        "weight": "0.0"
      }
    },
    {
      "type": "Feature",
      "id": "266",
      "geometry": {
        "type": "Point",
        "coordinates": [
          0.687058,
          -18.666849
        ]
      },
      "properties": {
        "label": "Orange roughy",
        "level": 4,
        "pos": "8110.03,-14272.09",
        "weight": "0.0"
      }
    },
    {
      "type": "Feature",
      "id": "268",
      "geometry": {
        "type": "Point",
        "coordinates": [
          5.401514,
          -21.327269
        ]
      },
      "properties": {
        "label": "Bagel",
        "level": 3,
        "pos": "10444.45,-15995.36",
        "weight": "0.0"
      }
    },
    {
      "type": "Feature",
      "id": "269",
      "geometry": {
        "type": "Point",
        "coordinates": [
          1.942202,
          -14.534893
        ]
      },
      "properties": {
        "label": "Triticale",
        "level": 3,
        "pos": "8731.53,-11647.24",
        "weight": "0.0"
      }
    },
    {
      "type": "Feature",
      "id": "270",
      "geometry": {
        "type": "Point",
        "coordinates": [
          4.600564,
          -18.861284
        ]
      },
      "properties": {
        "label": "Rice cake",
        "level": 3,
        "pos": "10047.85,-14397.07",
        "weight": "0.0"
      }
    },
    {
      "type": "Feature",
      "id": "276",
      "geometry": {
        "type": "Point",
        "coordinates": [
          20.268099,
          -20.540778
        ]
      },
      "properties": {
        "label": "Mustard spinach",
        "level": 3,
        "pos": "17805.82,-15482.85",
        "weight": "0.0"
      }
    },
    {
      "type": "Feature",
      "id": "277",
      "geometry": {
        "type": "Point",
        "coordinates": [
          9.542501,
          -16.712431
        ]
      },
      "properties": {
        "label": "Liquor",
        "level": 3,
        "pos": "12494.91,-13023.48",
        "weight": "0.0"
      }
    },
    {
      "type": "Feature",
      "id": "279",
      "geometry": {
        "type": "Point",
        "coordinates": [
          8.398633,
          -26.821367
        ]
      },
      "properties": {
        "label": "Anchovy",
        "level": 4,
        "pos": "11928.51,-19659.72",
        "weight": "0.0"
      }
    },
    {
      "type": "Feature",
      "id": "284",
      "geometry": {
        "type": "Point",
        "coordinates": [
          20.924914,
          -26.046442
        ]
      },
      "properties": {
        "label": "Dried milk",
        "level": 3,
        "pos": "18131.05,-19133.01",
        "weight": "0.0"
      }
    },
    {
      "type": "Feature",
      "id": "285",
      "geometry": {
        "type": "Point",
        "coordinates": [
          22.507002,
          -22.381722
        ]
      },
      "properties": {
        "label": "Boysenberry",
        "level": 3,
        "pos": "18914.44,-16686.83",
        "weight": "0.0"
      }
    },
    {
      "type": "Feature",
      "id": "286",
      "geometry": {
        "type": "Point",
        "coordinates": [
          7.951345,
          -15.278499
        ]
      },
      "properties": {
        "label": "Soy milk",
        "level": 3,
        "pos": "11707.03,-12115.58",
        "weight": "0.0"
      }
    },
    {
      "type": "Feature",
      "id": "288",
      "geometry": {
        "type": "Point",
        "coordinates": [
          24.250795,
          -24.659158
        ]
      },
      "properties": {
        "label": "Water",
        "level": 3,
        "pos": "19777.90,-18198.66",
        "weight": "0.0"
      }
    },
    {
      "type": "Feature",
      "id": "289",
      "geometry": {
        "type": "Point",
        "coordinates": [
          1.642846,
          -14.410722
        ]
      },
      "properties": {
        "label": "Purple laver",
        "level": 3,
        "pos": "8583.30,-11569.19",
        "weight": "0.0"
      }
    },
    {
      "type": "Feature",
      "id": "290",
      "geometry": {
        "type": "Point",
        "coordinates": [
          17.04471,
          -25.476948
        ]
      },
      "properties": {
        "label": "Common dab",
        "level": 4,
        "pos": "16209.72,-18748.15",
        "weight": "0.0"
      }
    },
    {
      "type": "Feature",
      "id": "291",
      "geometry": {
        "type": "Point",
        "coordinates": [
          2.815209,
          -17.738321
        ]
      },
      "properties": {
        "label": "Wonton wrapper",
        "level": 3,
        "pos": "9163.81,-13677.19",
        "weight": "0.0"
      }
    },
    {
      "type": "Feature",
      "id": "293",
      "geometry": {
        "type": "Point",
        "coordinates": [
          6.385616,
          -20.303852
        ]
      },
      "properties": {
        "label": "Kefir",
        "level": 3,
        "pos": "10931.74,-15328.98",
        "weight": "0.0"
      }
    },
    {
      "type": "Feature",
      "id": "295",
      "geometry": {
        "type": "Point",
        "coordinates": [
          10.302555,
          -16.6584
        ]
      },
      "properties": {
        "label": "Baked potato",
        "level": 3,
        "pos": "12871.26,-12989.15",
        "weight": "0.0"
      }
    },
    {
      "type": "Feature",
      "id": "300",
      "geometry": {
        "type": "Point",
        "coordinates": [
          9.167573,
          -16.090326
        ]
      },
      "properties": {
        "label": "Raisin bread",
        "level": 3,
        "pos": "12309.26,-12628.79",
        "weight": "0.0"
      }
    },
    {
      "type": "Feature",
      "id": "301",
      "geometry": {
        "type": "Point",
        "coordinates": [
          6.147895,
          -20.373565
        ]
      },
      "properties": {
        "label": "Cold cut",
        "level": 3,
        "pos": "10814.03,-15374.23",
        "weight": "0.0"
      }
    },
    {
      "type": "Feature",
      "id": "303",
      "geometry": {
        "type": "Point",
        "coordinates": [
          14.309424,
          -18.325342
        ]
      },
      "properties": {
        "label": "Candy bar",
        "level": 3,
        "pos": "14855.31,-14052.92",
        "weight": "0.0"
      }
    },
    {
      "type": "Feature",
      "id": "304",
      "geometry": {
        "type": "Point",
        "coordinates": [
          2.244103,
          -17.93713
        ]
      },
      "properties": {
        "label": "Sherry",
        "level": 3,
        "pos": "8881.02,-13804.30",
        "weight": "0.0"
      }
    },
    {
      "type": "Feature",
      "id": "307",
      "geometry": {
        "type": "Point",
        "coordinates": [
          0.87948,
          -14.00381
        ]
      },
      "properties": {
        "label": "Relish",
        "level": 3,
        "pos": "8205.31,-11313.72",
        "weight": "0.0"
      }
    },
    {
      "type": "Feature",
      "id": "308",
      "geometry": {
        "type": "Point",
        "coordinates": [
          1.525389,
          -21.675662
        ]
      },
      "properties": {
        "label": "Capers",
        "level": 4,
        "pos": "8525.14,-16223.26",
        "weight": "0.0"
      }
    },
    {
      "type": "Feature",
      "id": "313",
      "geometry": {
        "type": "Point",
        "coordinates": [
          14.147134,
          -12.717233
        ]
      },
      "properties": {
        "label": "Swede",
        "level": 4,
        "pos": "14774.95,-10508.88",
        "weight": "0.0"
      }
    },
    {
      "type": "Feature",
      "id": "314",
      "geometry": {
        "type": "Point",
        "coordinates": [
          6.458784,
          -21.568817
        ]
      },
      "properties": {
        "label": "Fruit preserve",
        "level": 3,
        "pos": "10967.97,-16153.31",
        "weight": "0.0"
      }
    },
    {
      "type": "Feature",
      "id": "320",
      "geometry": {
        "type": "Point",
        "coordinates": [
          4.776365,
          -22.763855
        ]
      },
      "properties": {
        "label": "Marine mussel",
        "level": 4,
        "pos": "10134.90,-16938.70",
        "weight": "0.0"
      }
    },
    {
      "type": "Feature",
      "id": "322",
      "geometry": {
        "type": "Point",
        "coordinates": [
          3.08504,
          -18.132421
        ]
      },
      "properties": {
        "label": "Akutaq",
        "level": 3,
        "pos": "9297.42,-13929.30",
        "weight": "0.0"
      }
    },
    {
      "type": "Feature",
      "id": "323",
      "geometry": {
        "type": "Point",
        "coordinates": [
          16.767367,
          -27.436256
        ]
      },
      "properties": {
        "label": "Fish burger",
        "level": 3,
        "pos": "16072.39,-20080.22",
        "weight": "0.0"
      }
    },
    {
      "type": "Feature",
      "id": "324",
      "geometry": {
        "type": "Point",
        "coordinates": [
          10.684551,
          -16.564151
        ]
      },
      "properties": {
        "label": "Tree fern",
        "level": 3,
        "pos": "13060.41,-12929.29",
        "weight": "0.0"
      }
    },
    {
      "type": "Feature",
      "id": "325",
      "geometry": {
        "type": "Point",
        "coordinates": [
          15.527571,
          -23.973854
        ]
      },
      "properties": {
        "label": "Gooseberry",
        "level": 4,
        "pos": "15458.49,-17740.96",
        "weight": "0.0"
      }
    },
    {
      "type": "Feature",
      "id": "327",
      "geometry": {
        "type": "Point",
        "coordinates": [
          15.543525,
          -27.635666
        ]
      },
      "properties": {
        "label": "Spread",
        "level": 3,
        "pos": "15466.39,-20217.09",
        "weight": "0.0"
      }
    },
    {
      "type": "Feature",
      "id": "331",
      "geometry": {
        "type": "Point",
        "coordinates": [
          6.570404,
          -21.771991
        ]
      },
      "properties": {
        "label": "Hummus",
        "level": 3,
        "pos": "11023.24,-16286.37",
        "weight": "0.0"
      }
    },
    {
      "type": "Feature",
      "id": "332",
      "geometry": {
        "type": "Point",
        "coordinates": [
          5.433907,
          -16.076338
        ]
      },
      "properties": {
        "label": "Pudding",
        "level": 3,
        "pos": "10460.49,-12619.93",
        "weight": "0.0"
      }
    },
    {
      "type": "Feature",
      "id": "334",
      "geometry": {
        "type": "Point",
        "coordinates": [
          6.160477,
          -15.749781
        ]
      },
      "properties": {
        "label": "Heart of palm",
        "level": 3,
        "pos": "10820.26,-12413.26",
        "weight": "0.0"
      }
    },
    {
      "type": "Feature",
      "id": "336",
      "geometry": {
        "type": "Point",
        "coordinates": [
          5.683522,
          -14.660838
        ]
      },
      "properties": {
        "label": "Hibiscus tea",
        "level": 4,
        "pos": "10584.09,-11726.45",
        "weight": "0.0"
      }
    },
    {
      "type": "Feature",
      "id": "337",
      "geometry": {
        "type": "Point",
        "coordinates": [
          20.957792,
          -27.097162
        ]
      },
      "properties": {
        "label": "Ice cream cone",
        "level": 3,
        "pos": "18147.33,-19848.04",
        "weight": "0.0"
      }
    },
    {
      "type": "Feature",
      "id": "340",
      "geometry": {
        "type": "Point",
        "coordinates": [
          13.915877,
          -19.37354
        ]
      },
      "properties": {
        "label": "Pectin",
        "level": 3,
        "pos": "14660.44,-14727.04",
        "weight": "0.0"
      }
    },
    {
      "type": "Feature",
      "id": "342",
      "geometry": {
        "type": "Point",
        "coordinates": [
          21.674184,
          -25.884688
        ]
      },
      "properties": {
        "label": "Pita bread",
        "level": 3,
        "pos": "18502.06,-19023.51",
        "weight": "0.0"
      }
    },
    {
      "type": "Feature",
      "id": "347",
      "geometry": {
        "type": "Point",
        "coordinates": [
          0.931483,
          -15.492615
        ]
      },
      "properties": {
        "label": "Couscous",
        "level": 3,
        "pos": "8231.06,-12250.74",
        "weight": "0.0"
      }
    },
    {
      "type": "Feature",
      "id": "350",
      "geometry": {
        "type": "Point",
        "coordinates": [
          4.649376,
          -19.258395
        ]
      },
      "properties": {
        "label": "Dock",
        "level": 3,
        "pos": "10072.02,-14652.78",
        "weight": "0.0"
      }
    },
    {
      "type": "Feature",
      "id": "352",
      "geometry": {
        "type": "Point",
        "coordinates": [
          5.072652,
          -14.181624
        ]
      },
      "properties": {
        "label": "American butterfish",
        "level": 4,
        "pos": "10281.61,-11425.30",
        "weight": "0.0"
      }
    },
    {
      "type": "Feature",
      "id": "361",
      "geometry": {
        "type": "Point",
        "coordinates": [
          6.329957,
          -15.55089
        ]
      },
      "properties": {
        "label": "Zwieback",
        "level": 3,
        "pos": "10904.18,-12287.55",
        "weight": "0.0"
      }
    },
    {
      "type": "Feature",
      "id": "362",
      "geometry": {
        "type": "Point",
        "coordinates": [
          10.585351,
          -17.887992
        ]
      },
      "properties": {
        "label": "Bean",
        "level": 3,
        "pos": "13011.29,-13772.87",
        "weight": "0.0"
      }
    },
    {
      "type": "Feature",
      "id": "363",
      "geometry": {
        "type": "Point",
        "coordinates": [
          10.219875,
          -17.965312
        ]
      },
      "properties": {
        "label": "Cumin",
        "level": 3,
        "pos": "12830.32,-13822.33",
        "weight": "0.0"
      }
    },
    {
      "type": "Feature",
      "id": "367",
      "geometry": {
        "type": "Point",
        "coordinates": [
          4.340932,
          -18.850648
        ]
      },
      "properties": {
        "label": "Kombu",
        "level": 3,
        "pos": "9919.29,-14390.23",
        "weight": "0.0"
      }
    },
    {
      "type": "Feature",
      "id": "368",
      "geometry": {
        "type": "Point",
        "coordinates": [
          3.088695,
          -17.554503
        ]
      },
      "properties": {
        "label": "Remoulade",
        "level": 3,
        "pos": "9299.23,-13559.79",
        "weight": "0.0"
      }
    },
    {
      "type": "Feature",
      "id": "369",
      "geometry": {
        "type": "Point",
        "coordinates": [
          5.816953,
          -20.588483
        ]
      },
      "properties": {
        "label": "Succotash",
        "level": 3,
        "pos": "10650.16,-15513.86",
        "weight": "0.0"
      }
    },
    {
      "type": "Feature",
      "id": "370",
      "geometry": {
        "type": "Point",
        "coordinates": [
          4.768085,
          -19.003754
        ]
      },
      "properties": {
        "label": "Roe",
        "level": 3,
        "pos": "10130.80,-14488.74",
        "weight": "0.0"
      }
    },
    {
      "type": "Feature",
      "id": "371",
      "geometry": {
        "type": "Point",
        "coordinates": [
          15.311844,
          -19.499771
        ]
      },
      "properties": {
        "label": "Cow milk, pasteurized, vitamin A + D added, 1% fat",
        "level": 3,
        "pos": "15351.67,-14808.51",
        "weight": "0.0"
      }
    },
    {
      "type": "Feature",
      "id": "372",
      "geometry": {
        "type": "Point",
        "coordinates": [
          6.555297,
          -15.911206
        ]
      },
      "properties": {
        "label": "Milk (Human)",
        "level": 3,
        "pos": "11015.76,-12515.38",
        "weight": "0.0"
      }
    },
    {
      "type": "Feature",
      "id": "374",
      "geometry": {
        "type": "Point",
        "coordinates": [
          3.381206,
          -22.210577
        ]
      },
      "properties": {
        "label": "Red king crab",
        "level": 4,
        "pos": "9444.07,-16574.25",
        "weight": "0.0"
      }
    },
    {
      "type": "Feature",
      "id": "376",
      "geometry": {
        "type": "Point",
        "coordinates": [
          6.32091,
          -20.273014
        ]
      },
      "properties": {
        "label": "Fruit salad",
        "level": 3,
        "pos": "10899.70,-15308.97",
        "weight": "0.0"
      }
    },
    {
      "type": "Feature",
      "id": "380",
      "geometry": {
        "type": "Point",
        "coordinates": [
          5.262246,
          -19.921223
        ]
      },
      "properties": {
        "label": "Potato gratin",
        "level": 3,
        "pos": "10375.49,-15080.98",
        "weight": "0.0"
      }
    },
    {
      "type": "Feature",
      "id": "382",
      "geometry": {
        "type": "Point",
        "coordinates": [
          5.650139,
          -20.095821
        ]
      },
      "properties": {
        "label": "Cassava",
        "level": 3,
        "pos": "10567.56,-15194.07",
        "weight": "0.0"
      }
    },
    {
      "type": "Feature",
      "id": "383",
      "geometry": {
        "type": "Point",
        "coordinates": [
          8.230486,
          -16.076117
        ]
      },
      "properties": {
        "label": "Marzipan",
        "level": 3,
        "pos": "11845.25,-12619.79",
        "weight": "0.0"
      }
    },
    {
      "type": "Feature",
      "id": "384",
      "geometry": {
        "type": "Point",
        "coordinates": [
          7.342615,
          -21.524819
        ]
      },
      "properties": {
        "label": "Chimichanga",
        "level": 3,
        "pos": "11405.61,-16124.52",
        "weight": "0.0"
      }
    },
    {
      "type": "Feature",
      "id": "385",
      "geometry": {
        "type": "Point",
        "coordinates": [
          3.860422,
          -15.155991
        ]
      },
      "properties": {
        "label": "Coffee mocha",
        "level": 3,
        "pos": "9681.36,-12038.31",
        "weight": "0.0"
      }
    },
    {
      "type": "Feature",
      "id": "386",
      "geometry": {
        "type": "Point",
        "coordinates": [
          4.587154,
          -19.022225
        ]
      },
      "properties": {
        "label": "Rice bread",
        "level": 3,
        "pos": "10041.21,-14500.63",
        "weight": "0.0"
      }
    },
    {
      "type": "Feature",
      "id": "388",
      "geometry": {
        "type": "Point",
        "coordinates": [
          8.469701,
          -16.307577
        ]
      },
      "properties": {
        "label": "Oat bread",
        "level": 3,
        "pos": "11963.70,-12766.48",
        "weight": "0.0"
      }
    },
    {
      "type": "Feature",
      "id": "392",
      "geometry": {
        "type": "Point",
        "coordinates": [
          7.692077,
          -15.911838
        ]
      },
      "properties": {
        "label": "Edible shell",
        "level": 3,
        "pos": "11578.65,-12515.78",
        "weight": "0.0"
      }
    },
    {
      "type": "Feature",
      "id": "393",
      "geometry": {
        "type": "Point",
        "coordinates": [
          21.430587,
          -29.100161
        ]
      },
      "properties": {
        "label": "Miso",
        "level": 3,
        "pos": "18381.44,-21230.10",
        "weight": "0.0"
      }
    },
    {
      "type": "Feature",
      "id": "395",
      "geometry": {
        "type": "Point",
        "coordinates": [
          5.004593,
          -19.812993
        ]
      },
      "properties": {
        "label": "Evaporated milk",
        "level": 3,
        "pos": "10247.91,-15010.94",
        "weight": "0.0"
      }
    },
    {
      "type": "Feature",
      "id": "396",
      "geometry": {
        "type": "Point",
        "coordinates": [
          8.839701,
          -16.721621
        ]
      },
      "properties": {
        "label": "Chocolate spread",
        "level": 3,
        "pos": "12146.91,-13029.32",
        "weight": "0.0"
      }
    },
    {
      "type": "Feature",
      "id": "399",
      "geometry": {
        "type": "Point",
        "coordinates": [
          4.853572,
          -19.659267
        ]
      },
      "properties": {
        "label": "Cocktail",
        "level": 3,
        "pos": "10173.13,-14911.54",
        "weight": "0.0"
      }
    },
    {
      "type": "Feature",
      "id": "4",
      "geometry": {
        "type": "Point",
        "coordinates": [
          -2.143046,
          -12.839782
        ]
      },
      "properties": {
        "height": "0.23",
        "label": "epilepsy",
        "level": 1,
        "pos": "6708.67,-10585.36",
        "weight": "263470.0",
        "width": "0.65"
      }
    },
    {
      "type": "Feature",
      "id": "401",
      "geometry": {
        "type": "Point",
        "coordinates": [
          15.256851,
          -27.93691
        ]
      },
      "properties": {
        "label": "Leavening agent",
        "level": 3,
        "pos": "15324.44,-20424.33",
        "weight": "0.0"
      }
    },
    {
      "type": "Feature",
      "id": "403",
      "geometry": {
        "type": "Point",
        "coordinates": [
          9.684111,
          -17.735285
        ]
      },
      "properties": {
        "label": "Condensed milk",
        "level": 3,
        "pos": "12565.03,-13675.25",
        "weight": "0.0"
      }
    },
    {
      "type": "Feature",
      "id": "408",
      "geometry": {
        "type": "Point",
        "coordinates": [
          1.418859,
          -17.458276
        ]
      },
      "properties": {
        "label": "Dungeness crab",
        "level": 4,
        "pos": "8472.39,-13498.38",
        "weight": "0.0"
      }
    },
    {
      "type": "Feature",
      "id": "409",
      "geometry": {
        "type": "Point",
        "coordinates": [
          15.194892,
          -26.49059
        ]
      },
      "properties": {
        "label": "Channel catfish",
        "level": 4,
        "pos": "15293.76,-19434.46",
        "weight": "0.0"
      }
    },
    {
      "type": "Feature",
      "id": "414",
      "geometry": {
        "type": "Point",
        "coordinates": [
          12.811491,
          -12.503016
        ]
      },
      "properties": {
        "label": "Daikon radish",
        "level": 4,
        "pos": "14113.59,-10375.28",
        "weight": "0.0"
      }
    },
    {
      "type": "Feature",
      "id": "417",
      "geometry": {
        "type": "Point",
        "coordinates": [
          15.258346,
          -13.72561
        ]
      },
      "properties": {
        "label": "Wasabi",
        "level": 4,
        "pos": "15325.18,-11139.32",
        "weight": "0.0"
      }
    },
    {
      "type": "Feature",
      "id": "421",
      "geometry": {
        "type": "Point",
        "coordinates": [
          16.967968,
          -22.950656
        ]
      },
      "properties": {
        "label": "Grouper",
        "level": 4,
        "pos": "16171.72,-17062.08",
        "weight": "0.0"
      }
    },
    {
      "type": "Feature",
      "id": "422",
      "geometry": {
        "type": "Point",
        "coordinates": [
          -0.553485,
          -14.317513
        ]
      },
      "properties": {
        "label": "Yam",
        "level": 3,
        "pos": "7495.76,-11510.63",
        "weight": "0.0"
      }
    },
    {
      "type": "Feature",
      "id": "424",
      "geometry": {
        "type": "Point",
        "coordinates": [
          17.57383,
          -18.769042
        ]
      },
      "properties": {
        "label": "Whelk",
        "level": 5,
        "pos": "16471.72,-14337.76",
        "weight": "0.0"
      }
    },
    {
      "type": "Feature",
      "id": "426",
      "geometry": {
        "type": "Point",
        "coordinates": [
          3.502176,
          -22.156946
        ]
      },
      "properties": {
        "label": "Chinese broccoli",
        "level": 4,
        "pos": "9503.97,-16539.00",
        "weight": "0.0"
      }
    },
    {
      "type": "Feature",
      "id": "427",
      "geometry": {
        "type": "Point",
        "coordinates": [
          3.630922,
          -22.434811
        ]
      },
      "properties": {
        "label": "Barley",
        "level": 4,
        "pos": "9567.72,-16721.78",
        "weight": "0.0"
      }
    },
    {
      "type": "Feature",
      "id": "428",
      "geometry": {
        "type": "Point",
        "coordinates": [
          1.924652,
          -17.271931
        ]
      },
      "properties": {
        "label": "Scallop",
        "level": 3,
        "pos": "8722.84,-13379.55",
        "weight": "0.0"
      }
    },
    {
      "type": "Feature",
      "id": "430",
      "geometry": {
        "type": "Point",
        "coordinates": [
          9.967634,
          -23.816045
        ]
      },
      "properties": {
        "label": "Natto",
        "level": 3,
        "pos": "12705.42,-17635.91",
        "weight": "0.0"
      }
    },
    {
      "type": "Feature",
      "id": "431",
      "geometry": {
        "type": "Point",
        "coordinates": [
          1.276844,
          -18.12819
        ]
      },
      "properties": {
        "label": "Japanese chestnut",
        "level": 4,
        "pos": "8402.07,-13926.59",
        "weight": "0.0"
      }
    },
    {
      "type": "Feature",
      "id": "432",
      "geometry": {
        "type": "Point",
        "coordinates": [
          8.207019,
          -16.490449
        ]
      },
      "properties": {
        "label": "Passion fruit",
        "level": 3,
        "pos": "11833.63,-12882.50",
        "weight": "0.0"
      }
    },
    {
      "type": "Feature",
      "id": "434",
      "geometry": {
        "type": "Point",
        "coordinates": [
          10.811822,
          -13.777271
        ]
      },
      "properties": {
        "label": "Dandelion",
        "level": 4,
        "pos": "13123.43,-11171.69",
        "weight": "0.0"
      }
    },
    {
      "type": "Feature",
      "id": "437",
      "geometry": {
        "type": "Point",
        "coordinates": [
          21.333932,
          -21.943714
        ]
      },
      "properties": {
        "label": "Chicory",
        "level": 3,
        "pos": "18333.58,-16398.98",
        "weight": "0.0"
      }
    },
    {
      "type": "Feature",
      "id": "438",
      "geometry": {
        "type": "Point",
        "coordinates": [
          5.047428,
          -14.727764
        ]
      },
      "properties": {
        "label": "Chinook salmon",
        "level": 4,
        "pos": "10269.12,-11768.56",
        "weight": "0.0"
      }
    },
    {
      "type": "Feature",
      "id": "439",
      "geometry": {
        "type": "Point",
        "coordinates": [
          4.187911,
          -22.236054
        ]
      },
      "properties": {
        "label": "Garden tomato (var.)",
        "level": 4,
        "pos": "9843.52,-16591.00",
        "weight": "0.0"
      }
    },
    {
      "type": "Feature",
      "id": "440",
      "geometry": {
        "type": "Point",
        "coordinates": [
          4.998716,
          -16.387685
        ]
      },
      "properties": {
        "label": "Chocolate mousse",
        "level": 3,
        "pos": "10245.00,-12817.29",
        "weight": "0.0"
      }
    },
    {
      "type": "Feature",
      "id": "444",
      "geometry": {
        "type": "Point",
        "coordinates": [
          -0.855568,
          -13.612353
        ]
      },
      "properties": {
        "label": "Rosemary",
        "level": 4,
        "pos": "7346.18,-11068.38",
        "weight": "0.0"
      }
    },
    {
      "type": "Feature",
      "id": "445",
      "geometry": {
        "type": "Point",
        "coordinates": [
          12.014479,
          -18.278794
        ]
      },
      "properties": {
        "label": "Flour",
        "level": 3,
        "pos": "13718.94,-14023.08",
        "weight": "0.0"
      }
    },
    {
      "type": "Feature",
      "id": "446",
      "geometry": {
        "type": "Point",
        "coordinates": [
          1.258123,
          -19.365775
        ]
      },
      "properties": {
        "label": "Common carp",
        "level": 4,
        "pos": "8392.80,-14722.03",
        "weight": "0.0"
      }
    },
    {
      "type": "Feature",
      "id": "447",
      "geometry": {
        "type": "Point",
        "coordinates": [
          17.544587,
          -20.975623
        ]
      },
      "properties": {
        "label": "Hedge mustard",
        "level": 4,
        "pos": "16457.24,-15765.88",
        "weight": "0.0"
      }
    },
    {
      "type": "Feature",
      "id": "448",
      "geometry": {
        "type": "Point",
        "coordinates": [
          6.570848,
          -16.05935
        ]
      },
      "properties": {
        "label": "Loganberry",
        "level": 3,
        "pos": "11023.46,-12609.17",
        "weight": "0.0"
      }
    },
    {
      "type": "Feature",
      "id": "449",
      "geometry": {
        "type": "Point",
        "coordinates": [
          4.571382,
          -19.549744
        ]
      },
      "properties": {
        "label": "Blue mussel",
        "level": 3,
        "pos": "10033.40,-14840.78",
        "weight": "0.0"
      }
    },
    {
      "type": "Feature",
      "id": "450",
      "geometry": {
        "type": "Point",
        "coordinates": [
          17.556442,
          -18.458523
        ]
      },
      "properties": {
        "label": "Coriander",
        "level": 4,
        "pos": "16463.11,-14138.34",
        "weight": "0.0"
      }
    },
    {
      "type": "Feature",
      "id": "451",
      "geometry": {
        "type": "Point",
        "coordinates": [
          18.402892,
          -25.95311
        ]
      },
      "properties": {
        "label": "Tarragon",
        "level": 3,
        "pos": "16882.24,-19069.81",
        "weight": "0.0"
      }
    },
    {
      "type": "Feature",
      "id": "452",
      "geometry": {
        "type": "Point",
        "coordinates": [
          14.79993,
          -28.690679
        ]
      },
      "properties": {
        "label": "Lima bean",
        "level": 3,
        "pos": "15098.19,-20945.44",
        "weight": "0.0"
      }
    },
    {
      "type": "Feature",
      "id": "456",
      "geometry": {
        "type": "Point",
        "coordinates": [
          5.880266,
          -12.142071
        ]
      },
      "properties": {
        "label": "Crab",
        "level": 4,
        "pos": "10681.51,-10150.42",
        "weight": "0.0"
      }
    },
    {
      "type": "Feature",
      "id": "457",
      "geometry": {
        "type": "Point",
        "coordinates": [
          4.710972,
          -19.880684
        ]
      },
      "properties": {
        "label": "Icing",
        "level": 3,
        "pos": "10102.52,-15054.74",
        "weight": "0.0"
      }
    },
    {
      "type": "Feature",
      "id": "462",
      "geometry": {
        "type": "Point",
        "coordinates": [
          3.226933,
          -12.765071
        ]
      },
      "properties": {
        "label": "Macaroni and cheese",
        "level": 3,
        "pos": "9367.68,-10538.73",
        "weight": "0.0"
      }
    },
    {
      "type": "Feature",
      "id": "465",
      "geometry": {
        "type": "Point",
        "coordinates": [
          6.601727,
          -26.996438
        ]
      },
      "properties": {
        "label": "Breadnut tree seed",
        "level": 4,
        "pos": "11038.75,-19779.21",
        "weight": "0.0"
      }
    },
    {
      "type": "Feature",
      "id": "466",
      "geometry": {
        "type": "Point",
        "coordinates": [
          11.296391,
          -26.218424
        ]
      },
      "properties": {
        "label": "Celeriac",
        "level": 4,
        "pos": "13363.37,-19249.60",
        "weight": "0.0"
      }
    },
    {
      "type": "Feature",
      "id": "467",
      "geometry": {
        "type": "Point",
        "coordinates": [
          13.849656,
          -12.841544
        ]
      },
      "properties": {
        "label": "Lambsquarters",
        "level": 4,
        "pos": "14627.65,-10586.46",
        "weight": "0.0"
      }
    },
    {
      "type": "Feature",
      "id": "470",
      "geometry": {
        "type": "Point",
        "coordinates": [
          12.895019,
          -27.292919
        ]
      },
      "properties": {
        "label": "Welsh onion",
        "level": 4,
        "pos": "14154.95,-19981.99",
        "weight": "0.0"
      }
    },
    {
      "type": "Feature",
      "id": "471",
      "geometry": {
        "type": "Point",
        "coordinates": [
          24.088282,
          -21.358244
        ]
      },
      "properties": {
        "label": "Yardlong bean",
        "level": 3,
        "pos": "19697.43,-16015.60",
        "weight": "0.0"
      }
    },
    {
      "type": "Feature",
      "id": "472",
      "geometry": {
        "type": "Point",
        "coordinates": [
          5.11902,
          -19.752587
        ]
      },
      "properties": {
        "label": "Hippoglossus (Common halibut)",
        "level": 3,
        "pos": "10304.57,-14971.87",
        "weight": "0.0"
      }
    },
    {
      "type": "Feature",
      "id": "473",
      "geometry": {
        "type": "Point",
        "coordinates": [
          15.866147,
          -14.471774
        ]
      },
      "properties": {
        "label": "Parsnip",
        "level": 4,
        "pos": "15626.14,-11607.56",
        "weight": "0.0"
      }
    },
    {
      "type": "Feature",
      "id": "482",
      "geometry": {
        "type": "Point",
        "coordinates": [
          1.603768,
          -17.01705
        ]
      },
      "properties": {
        "label": "Pacific rockfish",
        "level": 4,
        "pos": "8563.95,-13217.21",
        "weight": "0.0"
      }
    },
    {
      "type": "Feature",
      "id": "483",
      "geometry": {
        "type": "Point",
        "coordinates": [
          17.93147,
          -21.427592
        ]
      },
      "properties": {
        "label": "Scombridae (Bonito, Mackerel, Tuna)",
        "level": 4,
        "pos": "16648.81,-16060.93",
        "weight": "0.0"
      }
    },
    {
      "type": "Feature",
      "id": "485",
      "geometry": {
        "type": "Point",
        "coordinates": [
          3.711804,
          -22.322032
        ]
      },
      "properties": {
        "label": "Anguilliformes (Eel)",
        "level": 4,
        "pos": "9607.77,-16647.55",
        "weight": "0.0"
      }
    },
    {
      "type": "Feature",
      "id": "486",
      "geometry": {
        "type": "Point",
        "coordinates": [
          3.919292,
          -22.694371
        ]
      },
      "properties": {
        "label": "European anchovy",
        "level": 4,
        "pos": "9710.51,-16892.85",
        "weight": "0.0"
      }
    },
    {
      "type": "Feature",
      "id": "487",
      "geometry": {
        "type": "Point",
        "coordinates": [
          7.004968,
          -21.80371
        ]
      },
      "properties": {
        "label": "Purple mangosteen",
        "level": 3,
        "pos": "11238.42,-16307.16",
        "weight": "0.0"
      }
    },
    {
      "type": "Feature",
      "id": "488",
      "geometry": {
        "type": "Point",
        "coordinates": [
          9.920397,
          -28.550532
        ]
      },
      "properties": {
        "label": "Star fruit",
        "level": 4,
        "pos": "12682.03,-20848.27",
        "weight": "0.0"
      }
    },
    {
      "type": "Feature",
      "id": "491",
      "geometry": {
        "type": "Point",
        "coordinates": [
          14.447218,
          -12.441765
        ]
      },
      "properties": {
        "label": "Mung bean",
        "level": 4,
        "pos": "14923.54,-10337.10",
        "weight": "0.0"
      }
    },
    {
      "type": "Feature",
      "id": "492",
      "geometry": {
        "type": "Point",
        "coordinates": [
          1.638867,
          -20.416086
        ]
      },
      "properties": {
        "label": "Florida pompano",
        "level": 4,
        "pos": "8581.33,-15401.84",
        "weight": "0.0"
      }
    },
    {
      "type": "Feature",
      "id": "497",
      "geometry": {
        "type": "Point",
        "coordinates": [
          1.155026,
          -19.110353
        ]
      },
      "properties": {
        "label": "Cloud ear fungus",
        "level": 5,
        "pos": "8341.75,-14557.38",
        "weight": "0.0"
      }
    },
    {
      "type": "Feature",
      "id": "500",
      "geometry": {
        "type": "Point",
        "coordinates": [
          17.406168,
          -16.582261
        ]
      },
      "properties": {
        "label": "Allspice",
        "level": 5,
        "pos": "16388.70,-12940.79",
        "weight": "0.0"
      }
    },
    {
      "type": "Feature",
      "id": "503",
      "geometry": {
        "type": "Point",
        "coordinates": [
          5.916173,
          -20.521329
        ]
      },
      "properties": {
        "label": "Other soy product",
        "level": 3,
        "pos": "10699.29,-15470.21",
        "weight": "0.0"
      }
    },
    {
      "type": "Feature",
      "id": "504",
      "geometry": {
        "type": "Point",
        "coordinates": [
          5.548031,
          -14.878007
        ]
      },
      "properties": {
        "label": "American shad",
        "level": 4,
        "pos": "10517.00,-11863.14",
        "weight": "0.0"
      }
    },
    {
      "type": "Feature",
      "id": "506",
      "geometry": {
        "type": "Point",
        "coordinates": [
          6.965648,
          -14.574508
        ]
      },
      "properties": {
        "label": "Sablefish",
        "level": 5,
        "pos": "11218.95,-11672.15",
        "weight": "0.0"
      }
    },
    {
      "type": "Feature",
      "id": "507",
      "geometry": {
        "type": "Point",
        "coordinates": [
          8.333624,
          -15.868223
        ]
      },
      "properties": {
        "label": "Ocean pout",
        "level": 3,
        "pos": "11896.32,-12488.18",
        "weight": "0.0"
      }
    },
    {
      "type": "Feature",
      "id": "508",
      "geometry": {
        "type": "Point",
        "coordinates": [
          20.647268,
          -22.794547
        ]
      },
      "properties": {
        "label": "Common sage",
        "level": 3,
        "pos": "17993.57,-16958.96",
        "weight": "0.0"
      }
    },
    {
      "type": "Feature",
      "id": "510",
      "geometry": {
        "type": "Point",
        "coordinates": [
          4.290746,
          -14.654893
        ]
      },
      "properties": {
        "label": "Whitefish",
        "level": 4,
        "pos": "9894.44,-11722.71",
        "weight": "0.0"
      }
    },
    {
      "type": "Feature",
      "id": "514",
      "geometry": {
        "type": "Point",
        "coordinates": [
          18.978259,
          -17.082915
        ]
      },
      "properties": {
        "label": "Greenland halibut/turbot",
        "level": 4,
        "pos": "17167.14,-13259.14",
        "weight": "0.0"
      }
    },
    {
      "type": "Feature",
      "id": "515",
      "geometry": {
        "type": "Point",
        "coordinates": [
          16.739174,
          -12.479804
        ]
      },
      "properties": {
        "label": "Flatfish",
        "level": 4,
        "pos": "16058.43,-10360.81",
        "weight": "0.0"
      }
    },
    {
      "type": "Feature",
      "id": "517",
      "geometry": {
        "type": "Point",
        "coordinates": [
          3.227357,
          -21.960477
        ]
      },
      "properties": {
        "label": "Atlantic salmon",
        "level": 4,
        "pos": "9367.89,-16409.98",
        "weight": "0.0"
      }
    },
    {
      "type": "Feature",
      "id": "520",
      "geometry": {
        "type": "Point",
        "coordinates": [
          5.325054,
          -15.767887
        ]
      },
      "properties": {
        "label": "Yellow bell pepper",
        "level": 3,
        "pos": "10406.59,-12424.71",
        "weight": "0.0"
      }
    },
    {
      "type": "Feature",
      "id": "527",
      "geometry": {
        "type": "Point",
        "coordinates": [
          6.36647,
          -14.374325
        ]
      },
      "properties": {
        "label": "Calabash",
        "level": 4,
        "pos": "10922.26,-11546.32",
        "weight": "0.0"
      }
    },
    {
      "type": "Feature",
      "id": "529",
      "geometry": {
        "type": "Point",
        "coordinates": [
          9.401577,
          -16.465586
        ]
      },
      "properties": {
        "label": "Watercress",
        "level": 3,
        "pos": "12425.13,-12866.72",
        "weight": "0.0"
      }
    },
    {
      "type": "Feature",
      "id": "533",
      "geometry": {
        "type": "Point",
        "coordinates": [
          1.071275,
          -18.026882
        ]
      },
      "properties": {
        "label": "Black cabbage",
        "level": 5,
        "pos": "8300.28,-13861.73",
        "weight": "0.0"
      }
    },
    {
      "type": "Feature",
      "id": "534",
      "geometry": {
        "type": "Point",
        "coordinates": [
          19.756731,
          -20.239056
        ]
      },
      "properties": {
        "label": "Spirulina",
        "level": 4,
        "pos": "17552.61,-15286.94",
        "weight": "0.0"
      }
    },
    {
      "type": "Feature",
      "id": "535",
      "geometry": {
        "type": "Point",
        "coordinates": [
          1.280884,
          -19.572069
        ]
      },
      "properties": {
        "label": "Anise",
        "level": 5,
        "pos": "8404.07,-14855.20",
        "weight": "0.0"
      }
    },
    {
      "type": "Feature",
      "id": "536",
      "geometry": {
        "type": "Point",
        "coordinates": [
          17.526795,
          -20.391077
        ]
      },
      "properties": {
        "label": "Pacific herring",
        "level": 4,
        "pos": "16448.43,-15385.60",
        "weight": "0.0"
      }
    },
    {
      "type": "Feature",
      "id": "537",
      "geometry": {
        "type": "Point",
        "coordinates": [
          20.907122,
          -20.640523
        ]
      },
      "properties": {
        "label": "Whey",
        "level": 3,
        "pos": "18122.24,-15547.70",
        "weight": "0.0"
      }
    },
    {
      "type": "Feature",
      "id": "538",
      "geometry": {
        "type": "Point",
        "coordinates": [
          18.434901,
          -19.241162
        ]
      },
      "properties": {
        "label": "Bamboo shoots",
        "level": 4,
        "pos": "16898.09,-14641.67",
        "weight": "0.0"
      }
    },
    {
      "type": "Feature",
      "id": "539",
      "geometry": {
        "type": "Point",
        "coordinates": [
          12.014398,
          -27.377429
        ]
      },
      "properties": {
        "label": "Oregon yampah",
        "level": 4,
        "pos": "13718.90,-20039.89",
        "weight": "0.0"
      }
    },
    {
      "type": "Feature",
      "id": "541",
      "geometry": {
        "type": "Point",
        "coordinates": [
          5.398141,
          -19.915616
        ]
      },
      "properties": {
        "label": "Horseradish",
        "level": 3,
        "pos": "10442.78,-15077.35",
        "weight": "0.0"
      }
    },
    {
      "type": "Feature",
      "id": "542",
      "geometry": {
        "type": "Point",
        "coordinates": [
          3.137063,
          -22.069877
        ]
      },
      "properties": {
        "label": "Lingcod",
        "level": 4,
        "pos": "9323.18,-16481.80",
        "weight": "0.0"
      }
    },
    {
      "type": "Feature",
      "id": "543",
      "geometry": {
        "type": "Point",
        "coordinates": [
          16.765125,
          -18.756564
        ]
      },
      "properties": {
        "label": "Catjang pea",
        "level": 4,
        "pos": "16071.28,-14329.74",
        "weight": "0.0"
      }
    },
    {
      "type": "Feature",
      "id": "544",
      "geometry": {
        "type": "Point",
        "coordinates": [
          16.128303,
          -14.637105
        ]
      },
      "properties": {
        "label": "Atlantic wolffish",
        "level": 4,
        "pos": "15755.95,-11711.52",
        "weight": "0.0"
      }
    },
    {
      "type": "Feature",
      "id": "548",
      "geometry": {
        "type": "Point",
        "coordinates": [
          17.199448,
          -20.007134
        ]
      },
      "properties": {
        "label": "Atlantic mackerel",
        "level": 4,
        "pos": "16286.34,-15136.61",
        "weight": "0.0"
      }
    },
    {
      "type": "Feature",
      "id": "550",
      "geometry": {
        "type": "Point",
        "coordinates": [
          14.424982,
          -27.420579
        ]
      },
      "properties": {
        "label": "Percoidei (Bass and others)",
        "level": 3,
        "pos": "14912.53,-20069.47",
        "weight": "0.0"
      }
    },
    {
      "type": "Feature",
      "id": "553",
      "geometry": {
        "type": "Point",
        "coordinates": [
          18.049311,
          -14.915194
        ]
      },
      "properties": {
        "label": "Atlantic croaker",
        "level": 4,
        "pos": "16707.16,-11886.56",
        "weight": "0.0"
      }
    },
    {
      "type": "Feature",
      "id": "554",
      "geometry": {
        "type": "Point",
        "coordinates": [
          0.333154,
          -18.308169
        ]
      },
      "properties": {
        "label": "Wild carrot",
        "level": 4,
        "pos": "7934.79,-14041.91",
        "weight": "0.0"
      }
    },
    {
      "type": "Feature",
      "id": "555",
      "geometry": {
        "type": "Point",
        "coordinates": [
          17.400473,
          -23.455801
        ]
      },
      "properties": {
        "label": "Chayote",
        "level": 4,
        "pos": "16385.88,-17396.58",
        "weight": "0.0"
      }
    },
    {
      "type": "Feature",
      "id": "557",
      "geometry": {
        "type": "Point",
        "coordinates": [
          8.583158,
          -27.066631
        ]
      },
      "properties": {
        "label": "Beluga whale",
        "level": 4,
        "pos": "12019.88,-19827.17",
        "weight": "0.0"
      }
    },
    {
      "type": "Feature",
      "id": "559",
      "geometry": {
        "type": "Point",
        "coordinates": [
          0.918134,
          -20.905449
        ]
      },
      "properties": {
        "label": "Pumpkinseed sunfish",
        "level": 4,
        "pos": "8224.45,-15720.15",
        "weight": "0.0"
      }
    },
    {
      "type": "Feature",
      "id": "561",
      "geometry": {
        "type": "Point",
        "coordinates": [
          0.48886,
          -15.016989
        ]
      },
      "properties": {
        "label": "Cusk",
        "level": 3,
        "pos": "8011.89,-11950.69",
        "weight": "0.0"
      }
    },
    {
      "type": "Feature",
      "id": "562",
      "geometry": {
        "type": "Point",
        "coordinates": [
          10.111607,
          -16.156936
        ]
      },
      "properties": {
        "label": "Acerola",
        "level": 3,
        "pos": "12776.71,-12670.99",
        "weight": "0.0"
      }
    },
    {
      "type": "Feature",
      "id": "563",
      "geometry": {
        "type": "Point",
        "coordinates": [
          7.288007,
          -16.000194
        ]
      },
      "properties": {
        "label": "Sweet marjoram",
        "level": 3,
        "pos": "11378.57,-12571.71",
        "weight": "0.0"
      }
    },
    {
      "type": "Feature",
      "id": "564",
      "geometry": {
        "type": "Point",
        "coordinates": [
          2.201087,
          -16.379394
        ]
      },
      "properties": {
        "label": "Albacore tuna",
        "level": 4,
        "pos": "8859.72,-12812.03",
        "weight": "0.0"
      }
    },
    {
      "type": "Feature",
      "id": "566",
      "geometry": {
        "type": "Point",
        "coordinates": [
          3.59352,
          -17.56243
        ]
      },
      "properties": {
        "label": "Gefilte fish",
        "level": 3,
        "pos": "9549.20,-13564.85",
        "weight": "0.0"
      }
    },
    {
      "type": "Feature",
      "id": "567",
      "geometry": {
        "type": "Point",
        "coordinates": [
          5.4497,
          -20.00576
        ]
      },
      "properties": {
        "label": "Jew's ear",
        "level": 3,
        "pos": "10468.31,-15135.72",
        "weight": "0.0"
      }
    },
    {
      "type": "Feature",
      "id": "569",
      "geometry": {
        "type": "Point",
        "coordinates": [
          4.646771,
          -18.748692
        ]
      },
      "properties": {
        "label": "Corn grits",
        "level": 3,
        "pos": "10070.73,-14324.68",
        "weight": "0.0"
      }
    },
    {
      "type": "Feature",
      "id": "570",
      "geometry": {
        "type": "Point",
        "coordinates": [
          14.577054,
          -26.345399
        ]
      },
      "properties": {
        "label": "Sapodilla",
        "level": 4,
        "pos": "14987.83,-19335.79",
        "weight": "0.0"
      }
    },
    {
      "type": "Feature",
      "id": "573",
      "geometry": {
        "type": "Point",
        "coordinates": [
          0.890991,
          -22.41657
        ]
      },
      "properties": {
        "label": "Columbidae (Dove, Pigeon)",
        "level": 4,
        "pos": "8211.01,-16709.77",
        "weight": "0.0"
      }
    },
    {
      "type": "Feature",
      "id": "577",
      "geometry": {
        "type": "Point",
        "coordinates": [
          23.765095,
          -17.949604
        ]
      },
      "properties": {
        "label": "Spot croaker",
        "level": 4,
        "pos": "19537.40,-13812.28",
        "weight": "0.0"
      }
    },
    {
      "type": "Feature",
      "id": "589",
      "geometry": {
        "type": "Point",
        "coordinates": [
          12.106247,
          -13.838111
        ]
      },
      "properties": {
        "label": "Cardoon",
        "level": 4,
        "pos": "13764.38,-11209.82",
        "weight": "0.0"
      }
    },
    {
      "type": "Feature",
      "id": "590",
      "geometry": {
        "type": "Point",
        "coordinates": [
          2.010018,
          -17.749698
        ]
      },
      "properties": {
        "label": "Yellow wax bean",
        "level": 3,
        "pos": "8765.11,-13684.46",
        "weight": "0.0"
      }
    },
    {
      "type": "Feature",
      "id": "591",
      "geometry": {
        "type": "Point",
        "coordinates": [
          7.781058,
          -29.56303
        ]
      },
      "properties": {
        "label": "Freshwater drum",
        "level": 4,
        "pos": "11622.71,-21553.24",
        "weight": "0.0"
      }
    },
    {
      "type": "Feature",
      "id": "592",
      "geometry": {
        "type": "Point",
        "coordinates": [
          7.162169,
          -14.797037
        ]
      },
      "properties": {
        "label": "Pacific jack mackerel",
        "level": 3,
        "pos": "11316.26,-11812.16",
        "weight": "0.0"
      }
    },
    {
      "type": "Feature",
      "id": "594",
      "geometry": {
        "type": "Point",
        "coordinates": [
          10.153513,
          -26.966407
        ]
      },
      "properties": {
        "label": "Loquat",
        "level": 5,
        "pos": "12797.46,-19758.70",
        "weight": "0.0"
      }
    },
    {
      "type": "Feature",
      "id": "60",
      "geometry": {
        "type": "Point",
        "coordinates": [
          7.947205,
          -15.933611
        ]
      },
      "properties": {
        "label": "Milk (Other mammals)",
        "level": 3,
        "pos": "11704.98,-12529.56",
        "weight": "0.0"
      }
    },
    {
      "type": "Feature",
      "id": "602",
      "geometry": {
        "type": "Point",
        "coordinates": [
          9.721311,
          -15.304142
        ]
      },
      "properties": {
        "label": "Ginkgo nuts",
        "level": 4,
        "pos": "12583.45,-12131.76",
        "weight": "0.0"
      }
    },
    {
      "type": "Feature",
      "id": "603",
      "geometry": {
        "type": "Point",
        "coordinates": [
          1.193579,
          -15.308706
        ]
      },
      "properties": {
        "label": "Moth bean",
        "level": 3,
        "pos": "8360.84,-12134.64",
        "weight": "0.0"
      }
    },
    {
      "type": "Feature",
      "id": "606",
      "geometry": {
        "type": "Point",
        "coordinates": [
          2.79976,
          -14.482179
        ]
      },
      "properties": {
        "label": "Epazote",
        "level": 4,
        "pos": "9156.16,-11614.10",
        "weight": "0.0"
      }
    },
    {
      "type": "Feature",
      "id": "607",
      "geometry": {
        "type": "Point",
        "coordinates": [
          9.869182,
          -17.223036
        ]
      },
      "properties": {
        "label": "Peppermint",
        "level": 3,
        "pos": "12656.67,-13348.39",
        "weight": "0.0"
      }
    },
    {
      "type": "Feature",
      "id": "609",
      "geometry": {
        "type": "Point",
        "coordinates": [
          2.173399,
          -16.556371
        ]
      },
      "properties": {
        "label": "Coho salmon",
        "level": 5,
        "pos": "8846.01,-12924.35",
        "weight": "0.0"
      }
    },
    {
      "type": "Feature",
      "id": "61",
      "geometry": {
        "type": "Point",
        "coordinates": [
          4.575865,
          -18.513032
        ]
      },
      "properties": {
        "label": "Enchilada",
        "level": 3,
        "pos": "10035.62,-14173.32",
        "weight": "0.0"
      }
    },
    {
      "type": "Feature",
      "id": "610",
      "geometry": {
        "type": "Point",
        "coordinates": [
          16.527849,
          -14.802231
        ]
      },
      "properties": {
        "label": "Colorado pinyon",
        "level": 4,
        "pos": "15953.79,-11815.43",
        "weight": "0.0"
      }
    },
    {
      "type": "Feature",
      "id": "611",
      "geometry": {
        "type": "Point",
        "coordinates": [
          5.141316,
          -20.023081
        ]
      },
      "properties": {
        "label": "Olive",
        "level": 3,
        "pos": "10315.61,-15146.94",
        "weight": "0.0"
      }
    },
    {
      "type": "Feature",
      "id": "612",
      "geometry": {
        "type": "Point",
        "coordinates": [
          4.701137,
          -20.139143
        ]
      },
      "properties": {
        "label": "Quail",
        "level": 3,
        "pos": "10097.65,-15222.15",
        "weight": "0.0"
      }
    },
    {
      "type": "Feature",
      "id": "614",
      "geometry": {
        "type": "Point",
        "coordinates": [
          12.831767,
          -26.069321
        ]
      },
      "properties": {
        "label": "Chervil",
        "level": 4,
        "pos": "14123.63,-19148.51",
        "weight": "0.0"
      }
    },
    {
      "type": "Feature",
      "id": "615",
      "geometry": {
        "type": "Point",
        "coordinates": [
          2.984952,
          -22.127467
        ]
      },
      "properties": {
        "label": "Abalone",
        "level": 4,
        "pos": "9247.86,-16519.63",
        "weight": "0.0"
      }
    },
    {
      "type": "Feature",
      "id": "616",
      "geometry": {
        "type": "Point",
        "coordinates": [
          10.318429,
          -16.787149
        ]
      },
      "properties": {
        "label": "Cow milk, pasteurized, vitamin A + D added, 0% fat",
        "level": 3,
        "pos": "12879.12,-13070.97",
        "weight": "0.0"
      }
    },
    {
      "type": "Feature",
      "id": "621",
      "geometry": {
        "type": "Point",
        "coordinates": [
          15.92233,
          -23.327906
        ]
      },
      "properties": {
        "label": "True sole",
        "level": 4,
        "pos": "15653.96,-17311.77",
        "weight": "0.0"
      }
    },
    {
      "type": "Feature",
      "id": "623",
      "geometry": {
        "type": "Point",
        "coordinates": [
          9.619789,
          -24.203694
        ]
      },
      "properties": {
        "label": "Tostada",
        "level": 3,
        "pos": "12533.18,-17894.19",
        "weight": "0.0"
      }
    },
    {
      "type": "Feature",
      "id": "624",
      "geometry": {
        "type": "Point",
        "coordinates": [
          7.055295,
          -13.913575
        ]
      },
      "properties": {
        "label": "Norway lobster",
        "level": 4,
        "pos": "11263.34,-11257.13",
        "weight": "0.0"
      }
    },
    {
      "type": "Feature",
      "id": "625",
      "geometry": {
        "type": "Point",
        "coordinates": [
          4.911513,
          -22.811132
        ]
      },
      "properties": {
        "label": "Irish moss",
        "level": 4,
        "pos": "10201.82,-16969.91",
        "weight": "0.0"
      }
    },
    {
      "type": "Feature",
      "id": "627",
      "geometry": {
        "type": "Point",
        "coordinates": [
          1.898318,
          -22.714788
        ]
      },
      "properties": {
        "label": "European chestnut",
        "level": 4,
        "pos": "8709.80,-16906.32",
        "weight": "0.0"
      }
    },
    {
      "type": "Feature",
      "id": "628",
      "geometry": {
        "type": "Point",
        "coordinates": [
          4.752353,
          -19.362829
        ]
      },
      "properties": {
        "label": "Tea",
        "level": 3,
        "pos": "10123.01,-14720.13",
        "weight": "0.0"
      }
    },
    {
      "type": "Feature",
      "id": "63",
      "geometry": {
        "type": "Point",
        "coordinates": [
          -0.311645,
          -17.269781
        ]
      },
      "properties": {
        "label": "Domestic goat",
        "level": 4,
        "pos": "7615.51,-13378.18",
        "weight": "0.0"
      }
    },
    {
      "type": "Feature",
      "id": "630",
      "geometry": {
        "type": "Point",
        "coordinates": [
          7.719563,
          -21.919022
        ]
      },
      "properties": {
        "label": "Highbush blueberry",
        "level": 3,
        "pos": "11592.26,-16382.78",
        "weight": "0.0"
      }
    },
    {
      "type": "Feature",
      "id": "633",
      "geometry": {
        "type": "Point",
        "coordinates": [
          3.11705,
          -15.342665
        ]
      },
      "properties": {
        "label": "Sockeye salmon",
        "level": 4,
        "pos": "9313.27,-12156.07",
        "weight": "0.0"
      }
    },
    {
      "type": "Feature",
      "id": "635",
      "geometry": {
        "type": "Point",
        "coordinates": [
          1.320406,
          -20.009218
        ]
      },
      "properties": {
        "label": "Atlantic halibut",
        "level": 4,
        "pos": "8423.64,-15137.96",
        "weight": "0.0"
      }
    },
    {
      "type": "Feature",
      "id": "637",
      "geometry": {
        "type": "Point",
        "coordinates": [
          7.863233,
          -26.958089
        ]
      },
      "properties": {
        "label": "Haddock",
        "level": 4,
        "pos": "11663.40,-19753.02",
        "weight": "0.0"
      }
    },
    {
      "type": "Feature",
      "id": "642",
      "geometry": {
        "type": "Point",
        "coordinates": [
          6.227829,
          -16.386629
        ]
      },
      "properties": {
        "label": "Winged bean",
        "level": 3,
        "pos": "10853.61,-12816.62",
        "weight": "0.0"
      }
    },
    {
      "type": "Feature",
      "id": "643",
      "geometry": {
        "type": "Point",
        "coordinates": [
          15.770158,
          -18.246105
        ]
      },
      "properties": {
        "label": "Cow milk, pasteurized, vitamin D added, 3.25% fat",
        "level": 3,
        "pos": "15578.61,-14002.13",
        "weight": "0.0"
      }
    },
    {
      "type": "Feature",
      "id": "644",
      "geometry": {
        "type": "Point",
        "coordinates": [
          8.918968,
          -10.720006
        ]
      },
      "properties": {
        "label": "Common octopus",
        "level": 4,
        "pos": "12186.16,-9267.38",
        "weight": "0.0"
      }
    },
    {
      "type": "Feature",
      "id": "645",
      "geometry": {
        "type": "Point",
        "coordinates": [
          18.41923,
          -22.21692
        ]
      },
      "properties": {
        "label": "Jute",
        "level": 4,
        "pos": "16890.33,-16578.42",
        "weight": "0.0"
      }
    },
    {
      "type": "Feature",
      "id": "646",
      "geometry": {
        "type": "Point",
        "coordinates": [
          5.637558,
          -20.288519
        ]
      },
      "properties": {
        "label": "Chinese water chestnut",
        "level": 3,
        "pos": "10561.33,-15319.03",
        "weight": "0.0"
      }
    },
    {
      "type": "Feature",
      "id": "647",
      "geometry": {
        "type": "Point",
        "coordinates": [
          7.961665,
          -14.708107
        ]
      },
      "properties": {
        "label": "Acorn",
        "level": 4,
        "pos": "11712.14,-11756.19",
        "weight": "0.0"
      }
    },
    {
      "type": "Feature",
      "id": "649",
      "geometry": {
        "type": "Point",
        "coordinates": [
          5.258631,
          -16.210065
        ]
      },
      "properties": {
        "label": "Scup",
        "level": 3,
        "pos": "10373.70,-12704.66",
        "weight": "0.0"
      }
    },
    {
      "type": "Feature",
      "id": "65",
      "geometry": {
        "type": "Point",
        "coordinates": [
          4.830165,
          -23.50395
        ]
      },
      "properties": {
        "label": "Tilefish",
        "level": 4,
        "pos": "10161.54,-17428.53",
        "weight": "0.0"
      }
    },
    {
      "type": "Feature",
      "id": "650",
      "geometry": {
        "type": "Point",
        "coordinates": [
          15.976454,
          -21.913931
        ]
      },
      "properties": {
        "label": "Swiss chard",
        "level": 4,
        "pos": "15680.76,-16379.44",
        "weight": "0.0"
      }
    },
    {
      "type": "Feature",
      "id": "651",
      "geometry": {
        "type": "Point",
        "coordinates": [
          9.724562,
          -24.349726
        ]
      },
      "properties": {
        "label": "American pokeweed",
        "level": 3,
        "pos": "12585.06,-17991.69",
        "weight": "0.0"
      }
    },
    {
      "type": "Feature",
      "id": "652",
      "geometry": {
        "type": "Point",
        "coordinates": [
          8.766593,
          -14.825709
        ]
      },
      "properties": {
        "label": "Yellowtail amberjack",
        "level": 4,
        "pos": "12110.71,-11830.21",
        "weight": "0.0"
      }
    },
    {
      "type": "Feature",
      "id": "656",
      "geometry": {
        "type": "Point",
        "coordinates": [
          -0.213253,
          -13.929396
        ]
      },
      "properties": {
        "label": "Skipjack tuna",
        "level": 3,
        "pos": "7664.23,-11267.05",
        "weight": "0.0"
      }
    },
    {
      "type": "Feature",
      "id": "657",
      "geometry": {
        "type": "Point",
        "coordinates": [
          16.648416,
          -16.042612
        ]
      },
      "properties": {
        "label": "Pacific oyster",
        "level": 4,
        "pos": "16013.49,-12598.57",
        "weight": "0.0"
      }
    },
    {
      "type": "Feature",
      "id": "659",
      "geometry": {
        "type": "Point",
        "coordinates": [
          5.732274,
          -14.377603
        ]
      },
      "properties": {
        "label": "Freshwater eel",
        "level": 4,
        "pos": "10608.23,-11548.38",
        "weight": "0.0"
      }
    },
    {
      "type": "Feature",
      "id": "66",
      "geometry": {
        "type": "Point",
        "coordinates": [
          2.80182,
          -17.559359
        ]
      },
      "properties": {
        "label": "Chum salmon",
        "level": 3,
        "pos": "9157.18,-13562.89",
        "weight": "0.0"
      }
    },
    {
      "type": "Feature",
      "id": "660",
      "geometry": {
        "type": "Point",
        "coordinates": [
          4.547329,
          -18.655547
        ]
      },
      "properties": {
        "label": "Kelp",
        "level": 3,
        "pos": "10021.49,-14264.83",
        "weight": "0.0"
      }
    },
    {
      "type": "Feature",
      "id": "661",
      "geometry": {
        "type": "Point",
        "coordinates": [
          10.804815,
          -18.1268
        ]
      },
      "properties": {
        "label": "Soy yogurt",
        "level": 3,
        "pos": "13119.96,-13925.70",
        "weight": "0.0"
      }
    },
    {
      "type": "Feature",
      "id": "662",
      "geometry": {
        "type": "Point",
        "coordinates": [
          3.944112,
          -22.483993
        ]
      },
      "properties": {
        "label": "Pak choy",
        "level": 4,
        "pos": "9722.80,-16754.17",
        "weight": "0.0"
      }
    },
    {
      "type": "Feature",
      "id": "663",
      "geometry": {
        "type": "Point",
        "coordinates": [
          7.78859,
          -16.24635
        ]
      },
      "properties": {
        "label": "Atlantic pollock",
        "level": 3,
        "pos": "11626.44,-12727.66",
        "weight": "0.0"
      }
    },
    {
      "type": "Feature",
      "id": "664",
      "geometry": {
        "type": "Point",
        "coordinates": [
          17.654894,
          -17.159465
        ]
      },
      "properties": {
        "label": "Black-eyed pea",
        "level": 5,
        "pos": "16511.86,-13307.89",
        "weight": "0.0"
      }
    },
    {
      "type": "Feature",
      "id": "665",
      "geometry": {
        "type": "Point",
        "coordinates": [
          4.487672,
          -19.206689
        ]
      },
      "properties": {
        "label": "Adobo",
        "level": 3,
        "pos": "9991.95,-14619.45",
        "weight": "0.0"
      }
    },
    {
      "type": "Feature",
      "id": "669",
      "geometry": {
        "type": "Point",
        "coordinates": [
          1.739299,
          -16.573584
        ]
      },
      "properties": {
        "label": "Fenugreek",
        "level": 5,
        "pos": "8631.06,-12935.28",
        "weight": "0.0"
      }
    },
    {
      "type": "Feature",
      "id": "67",
      "geometry": {
        "type": "Point",
        "coordinates": [
          6.78189,
          -21.563301
        ]
      },
      "properties": {
        "label": "Asian pear",
        "level": 3,
        "pos": "11127.96,-16149.70",
        "weight": "0.0"
      }
    },
    {
      "type": "Feature",
      "id": "670",
      "geometry": {
        "type": "Point",
        "coordinates": [
          7.456134,
          -21.847409
        ]
      },
      "properties": {
        "label": "Dolphin fish",
        "level": 3,
        "pos": "11461.82,-16335.81",
        "weight": "0.0"
      }
    },
    {
      "type": "Feature",
      "id": "675",
      "geometry": {
        "type": "Point",
        "coordinates": [
          19.30086,
          -23.791977
        ]
      },
      "properties": {
        "label": "Burbot",
        "level": 3,
        "pos": "17326.88,-17619.90",
        "weight": "0.0"
      }
    },
    {
      "type": "Feature",
      "id": "679",
      "geometry": {
        "type": "Point",
        "coordinates": [
          11.258242,
          -11.347305
        ]
      },
      "properties": {
        "label": "Milkfish",
        "level": 4,
        "pos": "13344.48,-9656.36",
        "weight": "0.0"
      }
    },
    {
      "type": "Feature",
      "id": "68",
      "geometry": {
        "type": "Point",
        "coordinates": [
          5.849468,
          -20.180603
        ]
      },
      "properties": {
        "label": "Quinoa",
        "level": 3,
        "pos": "10666.26,-15249.03",
        "weight": "0.0"
      }
    },
    {
      "type": "Feature",
      "id": "681",
      "geometry": {
        "type": "Point",
        "coordinates": [
          0.715069,
          -18.032756
        ]
      },
      "properties": {
        "label": "Pepper (C. frutescens)",
        "level": 4,
        "pos": "8123.90,-13865.49",
        "weight": "0.0"
      }
    },
    {
      "type": "Feature",
      "id": "683",
      "geometry": {
        "type": "Point",
        "coordinates": [
          5.258995,
          -22.881525
        ]
      },
      "properties": {
        "label": "Common ling",
        "level": 4,
        "pos": "10373.88,-17016.40",
        "weight": "0.0"
      }
    },
    {
      "type": "Feature",
      "id": "684",
      "geometry": {
        "type": "Point",
        "coordinates": [
          4.23327,
          -14.826789
        ]
      },
      "properties": {
        "label": "Soy bean",
        "level": 4,
        "pos": "9865.98,-11830.89",
        "weight": "0.0"
      }
    },
    {
      "type": "Feature",
      "id": "685",
      "geometry": {
        "type": "Point",
        "coordinates": [
          -0.287451,
          -20.059031
        ]
      },
      "properties": {
        "label": "Beech nut",
        "level": 4,
        "pos": "7627.49,-15170.23",
        "weight": "0.0"
      }
    },
    {
      "type": "Feature",
      "id": "686",
      "geometry": {
        "type": "Point",
        "coordinates": [
          4.064719,
          -15.190767
        ]
      },
      "properties": {
        "label": "Swordfish",
        "level": 4,
        "pos": "9782.52,-12060.24",
        "weight": "0.0"
      }
    },
    {
      "type": "Feature",
      "id": "687",
      "geometry": {
        "type": "Point",
        "coordinates": [
          9.428296,
          -15.209446
        ]
      },
      "properties": {
        "label": "Common thyme",
        "level": 4,
        "pos": "12438.36,-12072.02",
        "weight": "0.0"
      }
    },
    {
      "type": "Feature",
      "id": "69",
      "geometry": {
        "type": "Point",
        "coordinates": [
          3.440843,
          -11.803169
        ]
      },
      "properties": {
        "label": "Nopal",
        "level": 4,
        "pos": "9473.60,-9939.57",
        "weight": "0.0"
      }
    },
    {
      "type": "Feature",
      "id": "690",
      "geometry": {
        "type": "Point",
        "coordinates": [
          17.002179,
          -17.464029
        ]
      },
      "properties": {
        "label": "Anatidae (Duck, Goose, Swan)",
        "level": 4,
        "pos": "16188.66,-13502.05",
        "weight": "0.0"
      }
    },
    {
      "type": "Feature",
      "id": "691",
      "geometry": {
        "type": "Point",
        "coordinates": [
          6.142907,
          -20.648749
        ]
      },
      "properties": {
        "label": "Lotus",
        "level": 3,
        "pos": "10811.56,-15553.05",
        "weight": "0.0"
      }
    },
    {
      "type": "Feature",
      "id": "692",
      "geometry": {
        "type": "Point",
        "coordinates": [
          4.919227,
          -19.442595
        ]
      },
      "properties": {
        "label": "Other fermented milk",
        "level": 3,
        "pos": "10205.64,-14771.60",
        "weight": "0.0"
      }
    },
    {
      "type": "Feature",
      "id": "694",
      "geometry": {
        "type": "Point",
        "coordinates": [
          0.834626,
          -20.512635
        ]
      },
      "properties": {
        "label": "Jerusalem artichoke",
        "level": 4,
        "pos": "8183.10,-15464.56",
        "weight": "0.0"
      }
    },
    {
      "type": "Feature",
      "id": "697",
      "geometry": {
        "type": "Point",
        "coordinates": [
          16.88343,
          -21.401573
        ]
      },
      "properties": {
        "label": "Broad bean",
        "level": 4,
        "pos": "16129.86,-16043.92",
        "weight": "0.0"
      }
    },
    {
      "type": "Feature",
      "id": "698",
      "geometry": {
        "type": "Point",
        "coordinates": [
          1.161609,
          -14.652731
        ]
      },
      "properties": {
        "label": "Falafel",
        "level": 3,
        "pos": "8345.01,-11721.35",
        "weight": "0.0"
      }
    },
    {
      "type": "Feature",
      "id": "699",
      "geometry": {
        "type": "Point",
        "coordinates": [
          20.048898,
          -22.429101
        ]
      },
      "properties": {
        "label": "Fudge",
        "level": 3,
        "pos": "17697.28,-16718.02",
        "weight": "0.0"
      }
    },
    {
      "type": "Feature",
      "id": "70",
      "geometry": {
        "type": "Point",
        "coordinates": [
          5.546779,
          -15.31663
        ]
      },
      "properties": {
        "label": "Sesbania flower",
        "level": 3,
        "pos": "10516.38,-12139.64",
        "weight": "0.0"
      }
    },
    {
      "type": "Feature",
      "id": "700",
      "geometry": {
        "type": "Point",
        "coordinates": [
          17.433431,
          -19.371959
        ]
      },
      "properties": {
        "label": "Mountain hare",
        "level": 4,
        "pos": "16402.20,-14726.02",
        "weight": "0.0"
      }
    },
    {
      "type": "Feature",
      "id": "701",
      "geometry": {
        "type": "Point",
        "coordinates": [
          10.686369,
          -16.981508
        ]
      },
      "properties": {
        "label": "Cisco",
        "level": 3,
        "pos": "13061.31,-13194.59",
        "weight": "0.0"
      }
    },
    {
      "type": "Feature",
      "id": "702",
      "geometry": {
        "type": "Point",
        "coordinates": [
          8.112181,
          -22.875319
        ]
      },
      "properties": {
        "label": "Chia",
        "level": 3,
        "pos": "11786.67,-17012.30",
        "weight": "0.0"
      }
    },
    {
      "type": "Feature",
      "id": "704",
      "geometry": {
        "type": "Point",
        "coordinates": [
          9.516388,
          -15.520892
        ]
      },
      "properties": {
        "label": "Saskatoon berry",
        "level": 3,
        "pos": "12481.98,-12268.60",
        "weight": "0.0"
      }
    },
    {
      "type": "Feature",
      "id": "708",
      "geometry": {
        "type": "Point",
        "coordinates": [
          10.005339,
          -11.979304
        ]
      },
      "properties": {
        "label": "Cinnamon",
        "level": 4,
        "pos": "12724.09,-10049.12",
        "weight": "0.0"
      }
    },